nom,trigramme,insee_code,latitude,longitude
Abancourt,ABT,60001,49.6852237, 1.7743058
Abbaretz,AAR,44001,47.5546432, -1.5244159
Abbeville,ABB,80001,50.10221, 1.82449
Ablon-sur-Seine,ABL,94001,48.725468, 2.419151
Achères Grand Cormier,GCR,78551,48.9551835, 2.0919031
Achères Ville,ACW,78005,48.97011, 2.07739
Achiet-le-Grand,ACT,62005,50.1317525, 2.780168
Aéroport Charles de Gaulle 1,RSY,93073,49.00956, 2.56135
Agay,AGH,83118,43.4313701, 6.8564997
Agde,AGD,34003,43.31728, 3.466203
Agen,AGN,47001,44.208311, 0.620932
Agonac,AGA,24002,45.2865966, 0.7486706
Aguilcourt - Variscourt,AGK,2761,49.408017, 3.973137
Aigrefeuille le Thou,AGR,17447,46.09402, -0.95168
Aiguebelette-le-Lac,AGQ,73001,45.5363048, 5.8131468
Aiguebelle,AEB,73002,45.5437225, 6.3067175
Aigueperse,AGE,63001,46.0147884, 3.1982621
Aigues-Mortes,AIM,30003,43.5709008, 4.1912102
Aiguillon,AIN,47004,44.2987224, 0.3352388
Aillevillers,AIP,70171,47.9138876, 6.3372988
Ailly-sur-Noye,ASN,80010,49.75448, 2.36419
Ailly-sur-Somme,AYS,80011,49.92838, 2.20059
Aimargues,AIA,30006,43.6786107, 4.2082933
Aime - La Plagne,ANJ,73006,45.5544, 6.648646
Aiserey,ASI,21005,47.170501, 5.1582447
Aix-en-Provence,AXP,13001,43.522912, 5.445345
Aix-en-Provence TGV,AXV,13001,43.455237, 5.317534
Aix-les-Bains le Revard,AIX,73008,45.688161, 5.909371
Aixe-sur-Vienne,ASV,87001,45.7965002, 1.1456892
Alaï,ALA,69244,45.7521198, 4.7717824
Albens,ABN,73010,45.785946, 5.9483418
Albert,ALJ,80016,50.00546, 2.64453
Albertville,ALV,73011,45.672977, 6.383167
Albi,ALB,81004,43.92238, 2.137958
Albi Madeleine,ALM,81004,43.938011, 2.1409629
Albias,ALE,82002,44.0919078, 1.4448012
Albigny - Neuville,VVN,69003,45.874921, 4.832874
Alençon,ALN,61001,48.433884, 0.098531
Alès,ALS,30007,44.127825, 4.084948
Allassac,AAA,19005,45.2589385, 1.4731471
Allée de la Tour Rendez-Vous,AET,93057,48.897109, 2.506475
Allenc,AEN,48003,44.541296, 3.6638926
Alleyras,AES,43005,44.919217, 3.673517
Altkirch,ALK,68004,47.6270174, 7.2392493
Amagne - Lucquy,AMA,8008,49.5238187, 4.4738775
Ambazac,ABZ,87002,45.9529056, 1.406501
Ambérieu-en-Bugey,AMB,1004,45.954008, 5.342388
Amboise,AMQ,37003,47.42148, 0.981299
Ambronay - Priay,AAI,1007,46.0115941, 5.3382579
Amiens,AMS,80021,49.890746, 2.312592
Amifontaine,AMF,2013,49.4847322, 3.9105811
Amilly Ouerray,AMY,28006,48.4381825, 1.3892882
Amplepuis,AMP,69006,45.970982, 4.326844
Ancenis,ANC,44003,47.369334, -1.177763
Anchamps,ACP,8011,49.9307448, 4.6702434
Anché - Voulon,ACV,86003,46.3496187, 0.2503424
Ancy-sur-Moselle,AYM,57021,49.0575093, 6.0627661
Andelot-en-Montagne,AND,39009,46.8594671, 5.923584
Andrésy,ACY,78015,48.9747, 2.04928
Andrézieux-Bouthéon,ANZ,42005,45.5217037, 4.254834
Angers Maître École,AME,49007,47.4670899, -0.531894
Angers Saint-Laud,ASL,49007,47.464647, -0.55682
Angerville,AGV,91016,48.3112062, 2.0034931
Angoulême,ANG,16015,45.653572, 0.164608
Angoulins sur Mer,AOM,17010,46.108057, -1.1154503
Anizy - Pinon,API,2602,49.4960073, 3.4487637
Annappes,ANP,59009,50.6227708, 3.1475351
Annecy,ANY,74010,45.901965, 6.121835
Annemasse,ANE,74012,46.199222, 6.23652
Anor,ANO,59012,49.984892, 4.0929803
Anse,ANS,69009,45.939304, 4.719807
Anthéor Cap Roux,AHC,83118,43.4349641, 6.8921036
Antibes,ATB,6004,43.585784, 7.119498
Anvin,ANV,62036,50.446845, 2.25494
Apach,APJ,57026,49.458836, 6.371972
Appilly,APP,60021,49.5808826, 3.1221903
Arbanats,ABH,33007,44.6743555, -0.3954517
Arbois,AOI,39013,46.912509, 5.7648273
Arc-et-Senans,ACA,25021,47.0303516, 5.7767843
Arcachon,ARC,33009,44.659009, -1.16523
Arches,ARH,88011,48.1198133, 6.5283085
Arcy-sur-Cure,ACU,89015,47.6008461, 3.7668885
Arenc Euroméditerranée,AEM,13202,43.3132339, 5.3676221
Arengosse,ARO,40006,44.0069764, -0.8093835
Argelès-sur-Mer,AMR,66008,42.54397, 3.022349
Argentan,ARG,61006,48.738545, -0.025291
Argenteuil,ARW,95018,48.94686, 2.25727
Argentière,AGI,74056,45.9819438, 6.9264844
Argenton-sur-Creuse,AGC,36006,46.592248, 1.518305
Arles,ARS,13004,43.684853, 4.63203
Arleux,ARX,59015,50.2863204, 3.1208073
Armentières,ARM,59017,50.68084, 2.87763
Arnage,AAG,72008,47.9285663, 0.1898826
Arnèke,ARN,59018,50.831522, 2.4083063
Arpajon,ARP,91021,48.58617, 2.24112
Arras,ARR,62041,50.286673, 2.781942
Arrou,AOU,28012,48.0997945, 1.1285567
Ars-sur-Moselle,ASM,57032,49.0744745, 6.0776461
Artenay,ATY,45008,48.0808761, 1.8833705
Artix,ATI,64061,43.3931062, -0.5701881
Arvant,ARV,43038,45.3653797, 3.3106747
Ascq,ASC,59009,50.6218591, 3.1598992
Asnières-sur-Seine,AEE,92004,48.9058, 2.28324
Aspres-sur-Buëch,ASH,5010,44.519428, 5.7545655
Assat,ATK,64067,43.2543993, -0.2950176
Assier,AER,46009,44.6746197, 1.8697681
Athis-Mons,ATH,91027,48.712557, 2.403749
Aubagne,AUB,13005,43.296045, 5.56658
Aubazines - Saint-Hilaire,ABA,19211,45.1816781, 1.6412346
Aubergenville Élisabethville,AEH,78029,48.971825, 1.8484987
Aubiat,AUK,63013,45.983812, 3.1605115
Aubie - Saint-Antoine,ATX,33018,45.0151419, -0.4198843
Aubiet,AIT,32012,43.6502068, 0.7891179
Aubigné-Racan,ABG,72013,47.686945, 0.2657714
Aubigny-au-Bac,AAB,59026,50.2685315, 3.158706
Aubigny-en-Artois,ABI,62045,50.35297, 2.5928045
Aubin,AVB,12013,44.5272762, 2.2393128
Aubin-Saint-Vaast,AUV,62046,50.3946137, 1.9705382
Auboué,ABE,54028,49.216163, 5.9714608
Aubrives,ARI,8028,50.1044507, 4.7616512
Aubusson,AOO,23008,45.9596691, 2.1617231
Auch,AUH,32013,43.647488, 0.596661
Auchy-lès-Hesdin,AHH,62050,50.3963631, 2.1022448
Audrieu,ADR,14026,49.2161315, -0.5960138
Audruicq,ADQ,62057,50.87567, 2.07636
Audun-le-Roman,ALR,54029,49.36682, 5.89139
Auffay,AUF,76034,49.716044, 1.098441
Aulnat Aéroport,AUL,63019,45.7920571, 3.1614332
Aulnay-sous-Bois,ABM,93005,48.93179, 2.49431
Aulnoye-Aymeries,AYE,59033,50.19749, 3.84337
Aumale,AUM,76035,49.7650371, 1.7560425
Aumont-Aubrac,AAU,48009,44.7181699, 3.2835489
Auneau,AUN,28317,48.4458242, 1.77998
Auray,ARY,56007,47.68022, -2.999995
Aurec-sur-Loire,AEC,43012,45.3711611, 4.1983439
Aurillac,AUC,15014,44.921092, 2.435655
Auterive,AIE,31033,43.348993, 1.468831
Autun,AUP,71014,46.9548746, 4.2929079
Auvers-sur-Oise,AUW,95039,49.07062, 2.17526
Auxerre Saint-Gervais,AUX,89024,47.797645, 3.58514
Auxonne,AXO,21639,47.192663, 5.37737
Avallon,AVA,89025,47.4957553, 3.9124463
Avenue du Président Kennedy Maison de Radio France,APK,75116,48.853322, 2.279969
Avenue Foch,AVF,75116,48.870971, 2.2756167
Avenue Henri Martin,AHM,75116,48.8644077, 2.272238
Avesnelles,AVS,59035,50.1185513, 3.9485876
Avesnes-sur-Helpe,AVN,59036,50.12674, 3.93295
Avignon Centre,AVI,84007,43.9419, 4.805281
Avignonet-Lauragais,AWG,31037,43.3638769, 1.7872687
Avion,AON,62065,50.40723, 2.83365
Avord,ADG,18018,47.0349061, 2.6523757
Avoudrey,AVO,25039,47.1298359, 6.434573
Avranches,AVR,50025,48.6902445, -1.3700755
Avrechy,AVY,60034,49.4446439, 2.4179608
Ax-les-Thermes,AXN,9032,42.7247967, 1.8332516
Ay,AYN,51030,49.0487318, 4.0015644
Aytré Plage,ATL,17028,46.1273815, -1.1280462
Azay-le-Rideau,AZR,37014,47.2663383, 0.4475388
Azay-sur-Cher,EUR,37156,47.3652695, 0.8599885
Azerailles,AZE,54038,48.4913355, 6.695778
Babinière,BBR,44035,47.25875274, -1.544928378
Baccarat,BAC,54039,48.452405, 6.74383
Bagnac-sur-Célé,BAG,46015,44.6652105, 2.1602503
Bagneaux-sur-Loing,BXN,77016,48.2304802, 2.7033327
Bagnols - Chadenet,BCT,48037,44.5286125, 3.628178
Baillargues,BGU,34022,43.6533234, 4.0071585
Bailleau-le-Pin,BAP,28021,48.3668028, 1.3248851
Bailleul,BIU,59043,50.72916, 2.73445
Bailleul-Sir-Berthoult,BSH,62073,50.3351257, 2.8409809
Bains-les-Bains,BNS,88108,47.9811282, 6.2952683
Bainville-sur-Madon,BNK,54043,48.5863794, 6.099327
Baisieux,BAI,59044,50.61845, 3.2347796
Balagny Saint-Épin,BXE,60044,49.2942448, 2.3441977
Balbigny,BBY,42011,45.817858, 4.187443
Ballan-Miré,BME,37018,47.3369919, 0.6188975
Ballancourt-sur-Essonne,BUR,91045,48.532114, 2.371274
Balsièges,BKB,48016,44.4820108, 3.4560976
Banassac - La Canourgue,BAA,48017,44.4477632, 3.1958518
Bandol,BND,83009,43.140344, 5.750118
Bannalec,BNC,29004,47.9267473, -3.7065268
Bantzenheim,BTZ,68020,47.8109675, 7.5038675
Banyuls-sur-Mer,BAN,66016,42.4829582, 3.1250496
Bar-le-Duc,BLD,55029,48.773308, 5.166822
Bar-sur-Aube,BRB,10033,48.2385399, 4.7066708
Baraqueville Carcenac Peyralès,BAQ,12056,44.2704368, 2.4275453
Barentin,BTM,76057,49.549123, 0.953517
Barenton-Bugny,BJB,2046,49.6307907, 3.6559914
Barjac,BJC,48018,44.4992638, 3.4109786
Baroncourt,BTS,55158,49.2845332, 5.6997387
Barr,BAR,67021,48.4032933, 7.4565189
Barsac,BSQ,33030,44.6054306, -0.3215775
Bartenheim,BTK,68021,47.6349313, 7.4872561
Bas - Monistrol-sur-Loire,BMO,43020,45.297596, 4.139602
Bas Évette,BEV,90042,47.6810089, 6.8068494
Base Aérienne,BAE,41194,47.320184, 1.681869
Basse-Ham,BHD,57287,49.3805708, 6.2348709
Bassens,BAS,33032,44.9012933, -0.5223144
Batz-sur-Mer,BSK,44010,47.2809541, -2.4789866
Baule,BLJ,45024,47.8117535, 1.668127
Baume-les-Dames,BDA,25047,47.353937, 6.359603
Bauvin - Provin,BVP,59052,50.51168, 2.9054
Bayard,BYD,52265,48.5520296, 5.0754439
Bayeux,BAY,14047,49.269836, -0.698056
Bayon,BYN,54585,48.468046, 6.322569
Bayonne,BYE,64102,43.496801, -1.470306
Bazancourt,BZT,51043,49.361202, 4.173887
Baziège,BAZ,31048,43.4535696, 1.6205019
Béard,BVE,58025,46.8652207, 3.3179944
Beau Marais,BMQ,62193,50.945371, 1.8983301
Beaucaire,BCK,30032,43.80209, 4.6470865
Beaugency,BGY,45028,47.778365, 1.625938
Beaulieu-sur-Mer,BUM,6011,43.706651, 7.331545
Beaumont-le-Roger,BLR,27051,49.0741722, 0.7727865
Beaune,BEA,21054,47.023053, 4.848379
Beaurainville,BIV,62100,50.422891, 1.895345
Beautiran,BIR,33037,44.701041, -0.45017
Beauvais,BVS,60057,49.42648, 2.08869
Beauvoir-sur-Niort,BVK,79031,46.1768857, -0.4687544
Beauvoisin,BVW,30033,43.7245026, 4.3212178
Bécon les Bruyères,BEC,92026,48.90592, 2.26838
Bédarieux,BED,34028,43.6086972, 3.1495688
Bédarrides,BDR,84016,44.0407636, 4.8931321
Bedous,GGM,64104,42.99589, -0.60348
Bègles,BGL,33039,44.7995389, -0.5552495
Beillant,BIL,17400,45.7007999, -0.5265079
Belfort,BFT,90010,47.633284, 6.853956
Belfort - Montbéliard TGV,BFB,90068,47.585937, 6.897687
Bellac,BLL,87011,46.1252044, 1.0461168
Belle-Isle - Bégard,BIB,22135,48.5935901, -3.3228532
Bellegarde-sur-Valserine,BGD,1033,46.109425, 5.823483
Bellenaves,BLE,3022,46.199256, 3.0665239
Belleville,BEE,54060,48.8195721, 6.1018641
Belleville sur Sâone,BVL,69019,46.111917, 4.729028
Belleville-sur-Vie,BVD,85019,46.788316, -1.4346673
Bellevue,BLU,92048,48.8190033, 2.2296743
Bellignat,BNI,1031,46.2381265, 5.6298849
Belloy - Saint-Martin,BSW,95056,49.09807, 2.36135
Belvès,BES,24035,44.7773978, 1.0118831
Belvezet,BVZ,48023,44.5617971, 3.7518919
Belz - Ploemel,BZP,56161,47.652466, -3.0721919
Bena Fanes,BFA,66066,42.4580782, 1.9167264
Bénesse-Maremne,BMX,40036,43.6277484, -1.3698505
Bénestroff,BEN,57060,48.90656, 6.75266
Benfeld,BFD,67028,48.3735367, 7.584125
Bengy-sur-Craon,BNH,18027,47.0004698, 2.7492361
Béning-lès-Saint-Avold,BNG,57061,49.1379541, 6.8282982
Bergerac,BGC,24037,44.857061, 0.489174
Bergues,BEG,59067,50.96901, 2.42574
Berlaimont,BER,59068,50.1980095, 3.8105316
Bernay,BEY,27056,49.087102, 0.595634
Bersac-sur-Rivalier,BHA,87013,46.0837459, 1.4321682
Berthelming,BHN,57066,48.8096475, 7.0087859
Bertrichamps,BHZ,54065,48.4283359, 6.7912343
Bertry,BTD,59074,50.0911265, 3.4489955
Besançon Franche-Comté TGV,BFC,25035,47.307361058531725, 5.953195095062256
Besançon Mouillère,BNM,25056,47.240372, 6.03391
Besançon Viotte,BNV,25056,47.247019, 6.022003
Beslé,BIQ,44067,47.6988788, -1.8706374
Bessancourt,BSR,95060,49.03576, 2.21004
Bessay-sur-Allier,BSS,3025,46.4435849, 3.3606477
Bétaille,BIK,46028,44.9424281, 1.7344108
Béthune,BET,62119,50.52144, 2.64055
Betton,BTN,35024,48.1814803, -1.6344745
Beuvrages,BUS,59079,50.3894892, 3.5061396
Beuvry lès Béthune,BVR,62126,50.5356021, 2.6924093
Beynes,BYS,78062,48.8593599, 1.8755696
Beynost,BNO,1043,45.833915, 5.006969
Béziers,BZS,34032,43.33633, 3.218873
Biache-Saint-Vaast,BIA,62128,50.3162525, 2.9414975
Biarritz,BIZ,64122,43.459397, -1.545915
Bibliothèque François Mitterrand,BFM,75113,48.82984, 2.37684
Bidarray Pont Noblia,PBJ,64124,43.2682991, -1.3453233
Bidos,EON,64126,43.17892, -0.6069
Bièvres,BSI,91064,48.7513289, 2.2157279
Biffontaine,BFF,88059,48.2059398, 6.8071811
Biganos Facture,FAT,33051,44.637384, -0.96621
Bigny,BIG,18270,46.8015763, 2.368638
Billy-Montigny,BYM,62133,50.41556, 2.91206
Biot,BJO,6004,43.610951, 7.12609
Bischheim,BHM,67043,48.6118352, 7.7422165
Bischoffsheim,BFH,67045,48.48701, 7.49772
Bischwiller,BHW,67046,48.765753, 7.8516536
Bitschwiller-lès-Thann,BWP,68040,47.8273719, 7.078514
Blainville - Damelevières,BLV,54152,48.564971, 6.386953
Blaisy-Bas,BSB,21080,47.3734427, 4.7410755
Blangy-sur-Bresle,BBM,76101,49.9326071, 1.6259074
Blangy-sur-Ternoise,BIP,62138,50.424669, 2.1721585
Blanquefort,BQF,33056,44.917556, -0.62392
Blanzy,BYK,71040,46.694064, 4.3913585
Bléré - La Croix,BCX,37091,47.3377228, 0.9877583
Blois - Chambord,BLO,41018,47.585445, 1.323823
Blonville-sur-Mer - Benerville,BWB,14079,49.3313919, 0.0356856
Boën-sur-Lignon,BOE,42019,45.7413612, 4.0051544
Bogny-sur-Meuse,BYU,8081,49.8583117, 4.7632317
Bohain-en-Vermandois,BHI,2095,49.9884143, 3.4431289
Boigneville,BWI,91069,48.342078, 2.3789793
Bois-Colombes,BCO,92009,48.91348, 2.27256
Bois-d'Oingt - Légny,BDO,69111,45.9065839, 4.575043
Bois-le-Roi,BJR,77037,48.475567, 2.691606
Boisleux-au-Mont,BLX,62151,50.2104665, 2.771855
Boisseaux,BAX,45037,48.2566238, 1.9727681
Boisset,BCL,15021,44.786038, 2.2497669
Boissise-le-Roi,BKR,77040,48.529319, 2.572953
Boissy-l'Aillerie,BLA,95078,49.07598, 2.02513
Bollène La Croisière,BLN,84019,44.271525, 4.707908
Bollwiller,BOW,68043,47.8569694, 7.2672555
Bologne,BOG,52058,48.1986877, 5.1342228
Bolquère - Eyne,BQE,66020,42.4978734, 2.0875591
Bondy,BDY,93010,48.894208, 2.4786
Bonnemain,BMV,35029,48.4764049, -1.7654125
Bonneval,BOJ,28051,48.1862958, 1.3861845
Bonneville,BON,74042,46.077772, 6.416524
Bonnières-sur-Seine,BNR,78089,49.038788, 1.582205
Bons-en-Chablais,BAB,74043,46.270046, 6.366246
Bonson,BSN,42022,45.5221941, 4.2163084
Boran-sur-Oise,BRN,60086,49.1671348, 2.362537
Bordeaux Saint-Jean,BXJ,33063,44.825873, -0.556697
Bords,BOR,17053,45.8944625, -0.7985436
Bornel - Belle-Église,BBI,60088,49.19471, 2.20717
Bouaye,BLQ,44018,47.1380806, -1.6810992
Boucau,BUU,64140,43.5234217, -1.4905872
Bouchain,BAK,59092,50.2780892, 3.3319096
Boucoiran-et-Nozières,BKW,30046,43.9926943, 4.187634
Bouffémont - Moisselles,BOF,95091,49.04514, 2.32272
Bougival,BGV,78126,48.8542135, 2.1323749
Boulainvilliers,BWR,75116,48.85645, 2.275149
Boulazac,BZC,24053,45.172291, 0.772645
Boulogne Tintelleries,BKI,62160,50.72729, 1.60904
Boulogne-sur-Mer,BEM,62160,50.7157, 1.60964
Boulouris sur Mer,BOU,83118,43.4163471, 6.8082519
Bouray,BSO,91330,48.533149, 2.290596
Bourbourg,BBU,59094,50.952267, 2.1942305
Bourg-Bruche,BFZ,67059,48.3598566, 7.1371919
Bourg-en-Bresse,BGB,1053,46.200351, 5.215063
Bourg-Madame,BMD,66025,42.4324069, 1.9486704
Bourg-Saint-Maurice,BSM,73054,45.619036, 6.771273
Bourges,BGS,18033,47.094145, 2.394255
Bourgneuf-en-Retz,BGZ,44021,47.0469634, -1.9551942
Bourgoin-Jallieu,BRG,38053,45.583954, 5.273401
Bourgtheroulde - Thuit-Hébert,BGT,27637,49.3174381, 0.8383198
Bournezeau,BNZ,85034,46.6518258, -1.1806169
Bourron-Marlotte - Grez,BOM,77048,48.3326884, 2.6924552
Boussay - La Bruffière,BBF,44022,47.0505741, -1.1828046
Boussens,BQY,31084,43.179617, 0.972543
Boussy-Saint-Antoine,BXI,91097,48.680893, 2.532726
Bouthéon,BOH,42005,45.5246289, 4.2777187
Boutigny-sur-Essonne,BJN,91099,48.43495, 2.37636
Bouzonville,BZV,57106,49.2899739, 6.5293736
Boves,BOV,80131,49.8462355, 2.3981165
Bram,BRA,11049,43.2441014, 2.1191467
Brandérion,BPZ,56021,47.7823179, -3.1940402
Brassac-les-Mines - Sainte-Florine,BLM,63050,45.414246, 3.330167
Brax - Léguevin,BXL,31088,43.614887, 1.236922
Brazey-en-Plaine,BEP,21103,47.1314549, 5.2121276
Bréauté - Beuzeville,BTB,76141,49.603396, 0.417489
Brebières,BSU,62173,50.33624, 3.0142
Breil-sur-Roya,BRE,6023,43.944039, 7.5163276
Brélidy - Plouëc,BYP,22212,48.669204, -3.196269
Bressuire,BRS,79049,46.8384462, -0.4963269
Brest,BRT,29019,48.38811, -4.478903
Breteil,BTU,35040,48.1405713, -1.8972095
Bretenoux - Biars,BXB,46029,44.9273692, 1.8436871
Breteuil,BEB,60039,49.626389, 2.3845164
Bretigny - Norges,BTQ,21107,47.390044, 5.1105838
Brétigny-sur-Orge,BYR,91103,48.606683, 2.302378
Bretoncelles,BTO,61061,48.4326737, 0.8923825
Bretteville - Norrey,BVO,14098,49.2034112, -0.5127396
Breuil - Romain,BPR,51086,49.3084141, 3.7665322
Breuillet - Bruyères-le-Châtel,BIH,91105,48.577228, 2.191721
Breuillet Village,BRW,91105,48.564776, 2.171207
Bréval,BVA,78107,48.94336, 1.54191
Briançon,BRI,5023,44.889853, 6.633007
Briare,BEW,45053,47.6464312, 2.7337154
Brignac,BKX,87129,45.8635812, 1.4406315
Brignais,BGN,69027,45.6737721, 4.7636596
Brignoud,BNU,38547,45.26245, 5.901472
Brimeux,BWM,62177,50.4470409, 1.8313826
Brion - Laizy,BUJ,71251,46.9085776, 4.2069898
Brion - Montréal-la-Cluse,BMC,1063,46.1757013, 5.5585203
Brionne,BEU,27116,49.1964187, 0.7115304
Brioude,BRD,43040,45.3006493, 3.3786344
Briouze,BZN,61063,48.7018622, -0.3682036
Brive-la-Gaillarde,BLG,19031,45.152618, 1.528655
Broons,BOS,22020,48.3332957, -2.2356578
Brou,BRO,28061,48.2157588, 1.1606705
Broye,BQK,71063,46.8619444, 4.2960996
Bruges,BGH,33075,44.8870124, -0.609445
Brumath,BAH,67067,48.7331082, 7.7004016
Brunémont,BPN,59115,50.2783197, 3.1453509
Brunoy,BNY,91114,48.699112, 2.506422
Bruyères,BUY,88078,48.204895, 6.7187638
Bruyères-sur-Oise,BRK,95116,49.1552098, 2.3259636
Bruz,BRZ,35047,48.0286, -1.7518088
Bueil,BUE,27119,48.9253816, 1.4435896
Bugeat,BUG,19033,45.6005968, 1.9248147
Buire-sur-l'Ancre,BXA,80151,49.9647735, 2.5981885
Bully - Grenay,BGF,62186,50.44843, 2.73317
Buno - Gironville,BQV,91121,48.370847, 2.3871153
Busigny,BSY,59118,50.0397236, 3.4461174
Bussac-Forêt,BMR,17074,45.211928, -0.3682457
Busseau sur Creuse,BUC,23001,46.1230257, 2.0229244
Bussière-Galant,BGA,87027,45.6076224, 1.0261372
Buzy en Béarn,BUZ,64157,43.1482723, -0.4558864
Byans-sur-Doubs,BYB,25105,47.1185334, 5.8520589
Cadaujac,CDJ,33080,44.7520628, -0.5376186
Caen,CAE,14118,49.176354, -0.347613
Caffiers,CAF,62191,50.8500679, 1.8120345
Cagnes-sur-Mer,CGM,6027,43.65813, 7.14864
Cahors,CAH,46042,44.449275, 1.433325
Calais,CSV,62193,50.953481, 1.850819
Calais - Fréthun,FHS,62360,50.901221, 1.810891
Callac,CCF,22025,48.4062201, -3.419782
Calonne-Ricouart,CPC,62194,50.4827036, 2.4812098
Cambo-les-Bains,CPQ,64160,43.3656242, -1.3966849
Cambrai,CAM,59122,50.17662, 3.24118
Campagnac - Saint-Geniez,CNT,12047,44.4219559, 3.0664008
Cannes,CAN,6029,43.553839, 7.019682
Cannes La Bocca,CAB,6029,43.548787, 6.986601
Cantin,CNK,59126,50.3124545, 3.121943
Cap-d'Ail,KAI,6032,43.7205382, 7.3943362
Capdenac,CDC,12052,44.5782458, 2.0779632
Capvern,CPN,65127,43.1033454, 0.3296393
Carbonne,COA,31107,43.298206, 1.212531
Carcassonne,CNE,11069,43.218029, 2.351824
Carentan,CAR,50099,49.302482, -1.244938
Carhaix-Plouguer,CRX,29024,48.2780022, -3.5622173
Carignan,CAG,8090,49.6285736, 5.1684754
Carmaux,CMX,81060,44.048782, 2.152401
Carnoët - Locarn,CCN,22128,48.3405242, -3.4908822
Carnoles,KRL,6104,43.76203, 7.48139
Carnoules,CNS,83033,43.2974104, 6.1862531
Carpentras,IIM,84031,44.0499488, 5.044141
Carry-le-Rouet,CRR,13021,43.336592, 5.153594
Casino Lacroix Laval,CCL,69250,45.7878115, 4.7309383
Cassel,CRD,59054,50.7875916, 2.4599722
Cassis,CSI,13022,43.23406, 5.553055
Castelnau-d'Estrétefonds,CDF,31118,43.786196, 1.341761
Castelnaudary,CTY,11076,43.312292, 1.95039
Castelsarrasin,CTN,82033,44.0403503, 1.1143954
Castillon-la-Bataille,CIO,33108,44.856999, -0.04066
Castres,CTR,81065,43.599131, 2.231223
Cattenières,CTT,59138,50.1280738, 3.3337877
Caudéran Mérignac,CUD,33063,44.84288, -0.6274337
Caudrot,KDT,33111,44.5801152, -0.1452784
Caudry,CAU,59139,50.11146, 3.40983
Caulnes,CUL,22032,48.2844264, -2.155593
Caussade,CSD,82037,44.1622668, 1.5336541
Cavaillon,CVN,84035,43.834554, 5.043613
Cavignac,CGC,33114,45.105163, -0.382243
Cazères,CZG,31135,43.212834, 1.083106
Ceilhes - Roqueredonde,COQ,34233,43.8122656, 3.1551583
Ceintrey,CIT,54109,48.523865, 6.1572868
Cenon,CBX,33119,44.8563465, -0.5336487
Cerbère,CER,66048,42.4417732, 3.1634033
Cercottes,CCT,45062,47.9861553, 1.8849813
Cercy-la-Tour,CLT,58046,46.8578816, 3.6452029
Cergy le Haut,CJV,95127,49.0484932, 2.0118725
Cergy Préfecture,CYP,95127,49.03639, 2.07982
Cergy Saint-Christophe,CYC,95127,49.0496151, 2.0343975
Cerizay,CEZ,79062,46.8176878, -0.6689931
Cernay (Haut-Rhin),CEF,68063,47.802, 7.1737
Cernay (Val-d'Oise),CEJ,95219,48.98539, 2.2568
Cérons,CGD,33120,44.632346, -0.340526
Cessieu,CIU,38064,45.5611596, 5.3761179
Cesson,CES,77067,48.56563, 2.5938
Cesson-Sévigné,CGT,35051,48.11281, -1.60211
Ceyzériat,CZR,1072,46.1834877, 5.3258417
Chabenet,CBQ,36161,46.6265259, 1.5076773
Châbons,CKN,38065,45.4383566, 5.4281009
Chabris,CGY,36034,47.2549836, 1.6459424
Chagny,CHY,71073,46.907269, 4.749682
Chaingy Fourneaux Plage,CFX,45067,47.8770705, 1.782422
Chalais,CIC,16073,45.2708327, 0.0435966
Challans,CLS,85047,46.843962, -1.871879
Chalon-sur-Saône,CSS,71076,46.781612, 4.843454
Chalonnes-sur-Loire,CCE,49063,47.34306, -0.74306
Châlons-en-Champagne,CMP,51108,48.955252, 4.348656
Chamalières-sur-Loire,CML,43049,45.2047385, 3.9909202
Chamarande,CHK,91132,48.514244, 2.215854
Chambéry - Challes-les-Eaux,CRL,73065,45.571302, 5.919547
Chambly,CVK,60139,49.16362, 2.24048
Chamborigaud,CBO,30080,44.3002429, 3.9793332
Chambourg-sur-Indre,CMG,37049,47.1821629, 0.9648363
Chamelet,CWE,69039,45.9816414, 4.5069346
Chamonix Aiguille du Midi,CHW,74056,45.91993, 6.8667152
Chamonix-Mont-Blanc,CHX,74056,45.92277, 6.87363
Chamousset,CSK,73068,45.5575744, 6.2067432
Champ de Courses d'Enghien,CEG,95598,48.97975, 2.29189
Champ de Mars Tour Eiffel,CPM,75115,48.8551134, 2.2892141
Champagné,CGZ,72054,48.0197118, 0.3352253
Champagne-Ardenne TGV,CGV,51058,49.214806, 3.994632
Champagne-sur-Oise,CPI,95134,49.13573, 2.24156
Champagne-sur-Seine,CME,77079,48.406531, 2.799184
Champagney,CPY,70120,47.7031399, 6.7012773
Champagnole,CPG,39097,46.7492981, 5.9100314
Champagnole Paul-Émile Victor,PVT,39097,46.742483, 5.9198128
Champbenoist - Poigny,CPK,77368,48.545567, 3.287434
Champigneulles,CHG,54115,48.73499, 6.16913
Champigny sur Yonne,CSY,89074,48.3237418, 3.1305718
Champlan,CPL,91136,48.70804, 2.28073
Champs - Saint-Bris,CAI,89077,47.7388182, 3.6034756
Champtocé-sur-Loire,CWL,49068,47.4102457, -0.8685747
Chanac,CNA,48056,44.4739786, 3.3454117
Changis - Saint-Jean,CJN,77084,48.95936, 3.025394
Chanteloup-les-Vignes,CVF,78138,48.97095, 2.02771
Chantenay,CHA,44109,47.1971227, -1.5943634
Chantenay-Saint-Imbert,CXI,58057,46.7283203, 3.1720842
Chantilly - Gouvieux,CLY,60141,49.18724, 2.45979
Chantonnay,CTO,85051,46.6898472, -1.0544144
Chapeauroux,CPX,48139,44.8380008, 3.741923
Chaponost,CPT,69043,45.6984889, 4.7643014
Chaponval,CPW,95039,49.0694825, 2.1423781
Charbonnières-les-Bains,CRB,69044,45.782142, 4.735912
Charleville-Mézières,CMZ,8105,49.767915, 4.724952
Charmes,CHS,88090,48.378483, 6.301537
Chars,CHR,95142,49.16268, 1.93671
Chartres,CHH,28085,48.4482023, 1.4813128
Chartrettes,CJR,77096,48.4870771, 2.6950059
Chasse-sur-Rhône,CSR,38087,45.58237, 4.794843
Chasseneuil-du-Poitou,CHN,86062,46.6517702, 0.3730275
Chasseneuil-sur-Bonnieure,CBN,16085,45.8244091, 0.4535528
Chasseradès,CJD,48040,44.5539847, 3.8399319
Château-Arnoux-Saint-Auban,SAU,4049,44.0615651, 5.9973734
Château-du-Loir,CDL,72071,47.683392, 0.414912
Château-Gaillard,CGK,28367,48.1416904, 1.9128148
Château-l'Évêque,CEQ,24115,45.2445887, 0.6882106
Château-Renault,CTI,37063,47.5877961, 0.9015238
Château-Thierry,CTH,2168,49.038224, 3.409514
Châteaubourg,CTG,35068,48.106361, -1.405159
Châteaudun,CUN,28088,48.073463, 1.338133
Châteaulin,CEM,29026,48.2016033, -4.094308
Châteauneuf - Bujaleuf,CBF,87105,45.759316, 1.6453027
Châteauneuf-sur-Charente,CSC,16090,45.599836, -0.0502
Châteauneuf-sur-Cher,CHC,18058,46.8568144, 2.3103826
Châteauroux,CTX,36044,46.809737, 1.699536
Châtel - Nomexy,CEO,88327,48.307156, 6.387807
Châtel-Censoir,CAL,89091,47.5377695, 3.6350455
Châtelaillon-Plage,CTL,17094,46.0783303, -1.0908909
Châtelaudren - Plouagat,CDN,22206,48.5332189, -2.9746782
Châtellerault,CRT,86066,46.818594, 0.549279
Châtillon d'Azergues,CDZ,3069,45.8751815, 4.6451164
Chauffailles,CHF,71120,46.2074552, 4.3454278
Chaugey,CFJ,21356,47.0872036, 5.2551914
Chaulnes,CHL,80186,49.8076201, 2.8011421
Chaumont,CHM,52121,48.10976, 5.1346
Chaumont-en-Vexin,CEV,60143,49.26139, 1.87274
Chauny,CNY,2173,49.61119, 3.22354
Chaux-des-Crotenay,LXR,39129,46.6545926, 5.9438595
Chaville - Vélizy,CHV,78686,48.7998005, 2.1845267
Chaville Rive Droite,CWJ,92022,48.81213, 2.18785
Chaville Rive Gauche,CVI,92022,48.8047497, 2.1882472
Chazay - Marcilly,CZM,69125,45.8729618, 4.7252221
Chedde,CED,74208,45.9263464, 6.7197662
Cheilly-lès-Maranges,CJL,71122,46.8924768, 4.6758424
Chelles - Gournay,CSG,77108,48.874128, 2.582484
Chemillé-en-Anjou,CHE,49092,47.217748, -0.731989
Chemilly - Appoigny,CAP,89096,47.8972366, 3.5543936
Chemin d'Antony,CHQ,92002,48.748143, 2.3126207
Chenevières,CKY,54125,48.5195062, 6.6325613
Chenonceaux,CQH,37073,47.330554, 1.0661
Chépy - Valines,CYA,80190,50.0682219, 1.6358275
Cherbourg-en-Cotentin,CBU,50129,49.633505, -1.621515
Chessy,CZI,69056,45.885545, 4.6222625
Chevaigné,CWH,35079,48.2089042, -1.6307622
Chevillon,CIN,52123,48.5245505, 5.1117843
Chevilly,CVY,45093,48.0266215, 1.8793013
Chevrières,CGB,60149,49.3373064, 2.6828025
Chézy-sur-Marne,CYZ,2186,48.9919109, 3.3644624
Chilly-Mazarin,CAZ,91161,48.7004413, 2.3081837
Chindrieux,CWX,73085,45.8034376, 5.8468876
Chinon,CHI,37072,47.163047, 0.251538
Chirac,CAC,16100,44.5246607, 3.2638181
Chissay-en-Touraine,CXT,41051,47.3349004, 1.1333044
Chocques,CRG,62224,50.5382038, 2.564749
Choisy-le-Roi,CLR,94022,48.763974, 2.411102
Cholet,CHT,49099,47.065698, -0.869583
Chorges,CHO,5040,44.5458415, 6.2718887
Chouzy-sur-Cisse,CZV,41055,47.5203249, 1.247846
Cinq-Mars-la-Pile,CQM,37077,47.3452264, 0.4604878
Cintegabelle,CBT,31145,43.3054202, 1.5204268
Cires-lès-Mello,CIW,60155,49.2717956, 2.3601903
Ciry-le-Noble,CYL,71132,46.6040913, 4.2997146
Civrieux-d'Azergues,CZK,69059,45.8591831, 4.7182413
Cize - Bolozon,CZQ,1051,46.2134803, 5.4540677
Clacy - Mons,ONS,2196,49.5439229, 3.5766816
Clamart,CMA,92023,48.813844, 2.2733273
Clamecy,CLA,58079,47.4666984, 3.5207672
Clelles - Mens,CMS,38113,44.8272443, 5.6050622
Clères,CRS,76179,49.598964, 1.106184
Clermont de l'Oise,CDO,60157,49.38531, 2.41767
Clermont La Pardieu,COP,63113,45.766947, 3.134163
Clermont La Rotonde,RTD,63113,45.7680954, 3.0909704
Clermont-en-Argonne,CTA,55117,49.10645, 5.06506
Clermont-Ferrand,CLF,63113,45.778945, 3.100543
Clerval,CVL,25156,47.3966577, 6.4920574
Clichy - Levallois,CLL,75117,48.89678, 2.2982
Clisson,CLI,44043,47.086142, -1.286172
Cloyes-sur-le-Loir,CLO,28103,47.9921032, 1.2433542
Cluses,CLU,74081,46.061447, 6.582663
Coarraze - Nay,CZN,64191,43.1818351, -0.2416429
Coat Guégan,CQG,22249,48.4803156, -3.2738023
Cognac,COG,16102,45.684682, -0.326112
Coignières,CGW,78168,48.7437672, 1.920809
Collioure,COX,66053,42.5269437, 3.0782319
Collonges - Fontaines,COF,69063,45.8291102, 4.8466136
Collonges-lès-Premières,CLG,21183,47.2212533, 5.2653478
Colmar,CMR,68066,48.073201, 7.346967
Colmar Mésanges,CXM,68066,48.0860048, 7.3336703
Colmar Saint-Joseph,CXJ,68066,48.0816399, 7.3453397
Colombes,CBK,92025,48.92383, 2.25939
Colombier-Fontaine,CFT,25159,47.4554849, 6.6890071
Colomiers,COL,31149,43.603734, 1.334221
Colomiers Lycée International,LYF,31149,43.6163055, 1.3141157
Combourg,CUG,35085,48.41609, -1.72792
Combs-la-Ville - Quincy,CBV,77122,48.667179, 2.547798
Comines,CIS,59152,50.7608973, 3.0096253
Commentry,CMY,3082,46.295102, 2.739949
Commercy,CCY,55122,48.765749, 5.58861
Compans,COJ,77123,48.9915767, 2.6652718
Compiègne,CPE,60382,49.422005, 2.823679
Conches-en-Ouche,CCH,27165,48.9623603, 0.9378895
Condat - Le Lardin,CDT,24229,45.1267128, 1.2267493
Condé-sur-Huisne,CDH,61116,48.3834826, 0.8487023
Conflans - Jarny,CJJ,54273,49.1662895, 5.8681853
Conflans Fin d'Oise,CFD,78172,48.98931, 2.07465
Conflans-Sainte-Honorine,CSH,78172,48.99646, 2.09783
Conlie,CIE,72089,48.1272909, -0.0113736
Connerré - Beillé,COB,72031,48.0735, 0.48687
Contrexéville,CXC,88114,48.1796129, 5.890633
Corbehem,COR,62240,50.3428545, 3.0405375
Corbeil-Essonnes,COE,91174,48.61403, 2.47401
Corbie,CBI,80212,49.9116183, 2.4996846
Corbigny,CBY,58083,47.254807, 3.6773226
Corcieux Vanémont,CXV,88244,48.1982842, 6.8772915
Corcy,CKX,2216,49.2550929, 3.2157221
Cordemais,CDQ,44045,47.3021502, -1.8466771
Cordes - Vindrac,VDC,81320,44.067189, 1.900229
Corgoloin,CGO,21194,47.0841982, 4.9171231
Cormeilles-en-Parisis,CPA,95176,48.96864, 2.19358
Cormery,CEY,37083,47.26254, 0.833953
Cornil,CIL,19061,45.2151758, 1.6978482
Coron de Méricourt,CQW,62570,50.4150048, 2.8854084
Corps-Nuds,CPS,35088,47.9851669, -1.5754724
Corrèze,CZE,19236,45.3294801, 1.8810793
Corseul - Languenan,CFA,22105,48.4960574, -2.1414331
Cosne-Cours-sur-Loire,COS,58086,47.413996, 2.931981
Coucy-lès-Eppes,CCP,2218,49.556282, 3.7748209
Coudekerque-Branche,CDK,59155,51.0177069, 2.3751425
Couëron,CNQ,44047,47.2220412, -1.7235014
Couffoulens - Leuc,CFW,11102,43.1555365, 2.3161754
Couilly - Saint-Germain - Quincy,CYQ,77413,48.8830205, 2.854057
Coulanges-sur-Yonne,CAO,89129,47.5270546, 3.5472388
Coulommiers,CQU,77131,48.808006, 3.08225
Courbevoie,KOU,92026,48.89831, 2.24804
Courcay - Tauxigny,KYY,37085,47.2377076, 0.867867
Courcelles-le-Comte,COK,62248,50.1694124, 2.7880351
Courcelles-sur-Nied,CCD,57156,49.0634035, 6.3109926
Courcy - Brimont,CIM,51183,49.3296003, 4.0134623
Coursan,KOS,11106,43.23369, 3.0510465
Courtalain - Saint-Pellerin,CWP,28356,48.0735988, 1.1270043
Courthézon,CTZ,84039,44.0899478, 4.8881802
Courville-sur-Eure,CVB,28116,48.451236, 1.234836
Cousance,CSJ,39173,46.5353569, 5.3868216
Coutances,CCS,50147,49.042928, -1.441726
Coutras,COU,33138,45.03661, -0.13169
Couze,CZD,24223,44.836574, 0.7036282
Couzon-au-Mont-d'Or,KMD,69068,45.8486737, 4.8294786
Cramoisy,CYO,60173,49.256625, 2.40489
Cransac,CRZ,12083,44.522951, 2.2718666
Cravant - Bazarnes,CBZ,89030,47.6785079, 3.6811741
Crêches-sur-Saône,KSA,71150,46.2461762, 4.7840233
Crécy-la-Chapelle,CLC,77142,48.859391, 2.905748
Creil,CLH,60175,49.263757, 2.4692439
Crépieux la Pape,CLP,69286,45.8038348, 4.8922918
Crépy - Couvron,CYU,2238,49.6233401, 3.5167165
Crépy-en-Valois,CYV,60176,49.231235, 2.8864694
Crest,CRE,26108,44.7301546, 5.0160968
Créteil Pompadour,CTP,94028,48.7715403, 2.4352763
Crissé,CIK,72109,48.1681334, -0.0659101
Croix - Wasquehal,CRW,59646,50.6785574, 3.1380315
Croix du Prince,XDP,64445,43.2857104, -0.3791261
Croix L'Allumette,CIX,59163,50.6872009, 3.1516591
Croix Sainte,XST,13056,43.4088317, 5.0196445
Cros de Cagnes,CKG,6027,43.660465, 7.167111
Crouy,CRU,2243,49.4037093, 3.3569138
Crouy-sur-Ourcq,CQQ,77148,49.091821, 3.063081
Cubzac-les-Ponts,KBZ,33143,44.9729407, -0.4590937
Cuers - Pierrefeu,CFU,83049,43.2364281, 6.0856855
Cugand,KUG,85076,47.0582602, -1.253301
Cuinchy,CUH,62262,50.5219693, 2.7473533
Culmont - Chalindrey,CYN,52155,47.8100902, 5.4432217
Culoz,CUZ,1138,45.843264, 5.778784
Dachstein,DCN,67300,48.5428546, 7.5330038
Dambach-la-Ville,DMB,67084,48.3216345, 7.4355565
Damiatte - Saint-Paul,DSP,81078,43.6566194, 1.9733585
Dammartin - Juilly - Saint-Mard,DAM,77420,49.03219, 2.69887
Dangé-Saint-Romain,DGE,86092,46.9378397, 0.6087754
Danjoutin,DGI,90010,47.6175, 6.86919
Dannemarie,DAN,68068,47.6275771, 7.124907
Dannemarie - Velesmes,DNV,25195,47.2038599, 5.8738348
Dannes - Camiers,DCQ,62201,50.5759062, 1.614825
Daours,DAO,80036,49.899267, 2.4590533
Dardilly Le Jubin,DDJ,69072,45.815143, 4.7613451
Dardilly Les Mouilles,DDY,69072,45.7967409, 4.7600288
Darsac,DAR,43259,45.14211, 3.7365537
Dax,DAX,40088,43.720472, -1.050301
Decize,DZE,58095,46.837362, 3.467274
Dégagnac,DEG,46087,44.6534974, 1.3400861
Delle,DEL,90033,47.50593, 7.00962
Deluz,DLZ,25197,47.2925132, 6.199733
Denain,DEN,59172,50.3345415, 3.388699
Dercy - Froidmont,DER,2261,49.7025404, 3.6918473
Dettwiller,DEE,67089,48.7518969, 7.4652459
Deuil - Montmagny,DEU,95197,48.97589, 2.33785
Deûlémont,DLO,59482,50.7159172, 2.9933077
Deville,DVI,8139,49.8796028, 4.7072062
Diarville,DVL,54268,48.3975653, 6.1264922
Die,DIE,26113,44.7582549, 5.3632053
Diemeringen,DRI,67095,48.9405, 7.18529
Dieppe,DEV,76217,49.921788, 1.081133
Dieulouard,DID,54157,48.843367, 6.071489
Dieupentale,DIP,82048,43.8654687, 1.2760011
Digoin,DIG,71176,46.4851604, 3.9876537
Dijon,DJV,21231,47.32337, 5.027208
Dijon Porte Neuve,DJP,21231,47.322806, 5.054872
Dinan,DIN,22050,48.456764, -2.053542
Dingé,DNE,35094,48.3507382, -1.6859729
Dirinon,DIR,29140,48.3926343, -4.2855034
Dissay,DIF,86095,46.703544, 0.4210161
Dives-sur-Mer - Cabourg,DVQ,14225,49.2864776, -0.1074996
Dives-sur-Mer Port Guillaume,DSU,14225,49.2910882, -0.1008455
Docelles - Cheniménil,DOC,88101,48.1436134, 6.6104793
Dol-de-Bretagne,DOL,35095,48.54425, -1.750536
Dole,DLE,39198,47.096084, 5.488105
Dombasle-sur-Meurthe,DBS,54159,48.623275, 6.343478
Domblans - Voiteur,DBV,39199,46.7627809, 5.5977462
Domfront-en-Champagne,DFO,72119,48.1076766, 0.0262592
Dommartin - Lissieu,DLU,69076,45.8397811, 4.7344831
Dommartin - Remiencourt,DMM,80246,49.7996523, 2.3926625
Domont,DMO,95199,49.03268, 2.33746
Dompierre Sept Fons,DOP,3102,46.5263166, 3.6749309
Dompierre-sur-Helpe,DMR,59177,50.146144, 3.871144
Don - Sainghin,DON,59524,50.55176, 2.91458
Donchery,DEY,8142,49.6981267, 4.8747529
Donges Halte,DNG,44052,47.3151, -2.07236
Donjeux,DNJ,52175,48.3658544, 5.1482245
Donzère,DOE,26116,44.4433646, 4.7046262
Dordives,DDI,45127,48.1471796, 2.7628787
Dorlisheim,DHM,67101,48.5249915, 7.4930546
Dormans,DOR,51217,49.0791611, 3.641709
Douai,DOI,59178,50.371677, 3.089986
Dourdan,DHY,91200,48.533466, 2.009643
Dourdan La Forêt,DAQ,91200,48.535314, 1.994908
Dourges,DOU,62274,50.43192, 2.98697
Drancy,DRN,93029,48.93298, 2.45497
Drap - Cantaron,DRA,6031,43.7599599, 7.3168739
Drefféac,DRF,44053,47.4817568, -2.0503661
Dreuil-lès-Amiens,DAS,80256,49.91444, 2.23091
Dreux,DRX,28134,48.7314561, 1.3701604
Drusenheim,DRS,67106,48.7659128, 7.9478463
Druye,DRY,37099,47.3070191, 0.5354805
Dugny - La Courneuve T11,DLC,93027,48.9439, 2.4115
Dunkerque,DKQ,59183,51.03047, 2.368961
Duppigheim,DUP,67108,48.5439674, 7.5868091
Durtol - Nohanent,DUR,63141,45.7947707, 3.048557
Duttlenheim,DTM,67080,48.5453531, 7.5661529
Ebblinghem,EBB,59184,50.7306459, 2.409148
Ebersheim,EBH,67115,48.3099953, 7.494471
Échirolles,EHR,38151,45.153022, 5.718943
École-Valentin,ECV,25212,47.2749834, 5.9944745
Écommoy,ECO,72124,47.8246286, 0.2691867
Écouché,ECC,61153,48.7151009, -0.1209574
Écouen - Ézanville,ECZ,95229,49.02273, 2.36325
Ecully - Tassin,ECY,69244,45.7657162, 4.7795238
Égletons,EGL,19073,45.4023816, 2.0651243
Égly,ELY,91207,48.582364, 2.222138
Éguzon-Chantôme,EGU,36070,46.4397694, 1.5521707
Eichhoffen,ECF,67120,48.3824829, 7.4495524
Einvaux,EIN,54175,48.5034859, 6.3932959
Elbeuf - Saint-Aubin,ESA,76561,49.302766, 1.00993
Elne,ELN,66065,42.5971138, 2.9635851
Éloyes,ELS,88158,48.087067, 6.6001593
Embrun,EMB,5046,44.567008, 6.496773
Émerainville - Pontault-Combault,EMR,77169,48.806034, 2.618004
Enghien-les-Bains,ENK,95210,48.97309, 2.30699
Ennevelin,ENN,59197,50.5492981, 3.1586612
Entraigues-sur-la-Sorgue,ENR,84043,44.0054278, 4.9226971
Entzheim Aéroport,ENZ,67124,48.54699, 7.62794
Épanvilliers,EPI,86029,46.2254951, 0.2357576
Épernay,EPR,51230,49.046289, 3.959798
Épernon,EPN,28140,48.6052471, 1.6812578
Epfig,EFG,67125,48.3637643, 7.4504053
Épierre - Saint-Léger,MEE,73109,45.457027, 6.292521
Épinal,ELP,88160,48.178005, 6.441787
Épinay-sur-Orge,EYO,91216,48.66952, 2.33182
Épluches,EPL,95572,49.0549329, 2.1225973
Épône - Mézières,EPO,78217,48.9631225, 1.8085932
Épouville,EPU,76238,49.563814, 0.2236662
Éragny - Neuville,ERA,95218,49.01824, 2.09104
Ermont Halte,ERM,95219,48.9898, 2.26323
Err,ERR,66067,42.442777, 2.0290375
Erstein,EEN,67130,48.4229857, 7.6387869
Esbly,EYA,77171,48.90314191, 2.81059946
Escalquens,EQA,31169,43.5170958, 1.5422774
Escaudœuvres,EDV,59206,50.1918249, 3.2754949
Esches,ESC,60218,49.2125205, 2.1708125
Esquelbecq,ESQ,59210,50.8894369, 2.4121536
Essonnes Robinson,ESO,91174,48.606095, 2.463701
Estavar,EAA,66072,42.4632434, 2.0179071
Estrées-Saint-Denis,ESD,60223,49.4382161, 2.642402
Estressin,ESN,38544,45.540285, 4.868273
Esvres sur Indre,ESV,37104,47.2841016, 0.7816519
Étain,ETM,55181,49.2074907, 5.6398079
Étainhus - Saint-Romain,EAH,76250,49.5612151, 0.3310234
Étalans,EAS,25222,47.155884, 6.2706173
Étampes,ETP,91223,48.436661, 2.159468
Étang-sur-Arroux,ETG,71192,46.8679082, 4.1838415
Étaples - Le Touquet,ETA,62318,50.51686, 1.64231
Étigny - Véron,EYV,89160,48.1386835, 3.2904186
Étival-Clairefontaine,ETL,88165,48.3671987, 6.8769607
Étréchy,ETY,91226,48.493727, 2.194323
Étriché - Châteauneuf,EEF,49132,47.6567082, -0.4608993
Eu,EUW,76255,50.0541988, 1.416837
Évian-les-Bains,EVI,74119,46.397915, 6.577457
Évreux Normandie,EVX,27229,49.018748, 1.149629
Évron,EVN,53097,48.155501, -0.397338
Évry Val de Seine,EVR,91228,48.63442, 2.45209
Évry-Courcouronnes,EVC,91228,48.625507, 2.428581
Eymoutiers Vassivière,EYM,87064,45.7397876, 1.7412237
Èze,EZZ,6059,43.7221842, 7.3568031
Farbus,FAU,62324,50.357641, 2.8310408
Farébersviller,FBR,57207,49.1181603, 6.8618926
Faremoutiers - Pommeuse,FMP,77371,48.808494, 2.993109
Farschviller,FWR,57208,49.0878773, 6.9080815
Faubourg d'Orléans,FBL,41194,47.3669948, 1.7403794
Faulquemont,FAQ,57209,49.0453391, 6.6039774
Fécamp,FEC,76259,49.759277, 0.375287
Fegersheim - Lipsheim,FHM,67268,48.4905892, 7.6724806
Fellering,FRG,68089,47.8975893, 6.9871347
Felletin,FEL,23079,45.8864021, 2.169543
Fenouillet - Saint-Alban,FEX,31182,43.6840517, 1.4018103
Fépin,FEP,8166,50.0234644, 4.7266156
Ferrières - Fontenay,FFY,45148,48.0964767, 2.7726332
Feuquières - Broquiers,FBS,60233,49.6545751, 1.8305169
Feuquières - Fressenneville,FEF,80308,50.0632646, 1.5890574
Feurs,FEU,42094,45.744156, 4.230573
Feyzin,FEY,69276,45.6658584, 4.8531349
Figeac,FIG,46102,44.603515, 2.037355
Firminy,FNY,42095,45.391625, 4.28643
Fismes,FIO,51250,49.310665, 3.68213
Flavy-le-Martel,FAM,2315,49.7187375, 3.1905076
Flaxlanden,FXL,68384,47.6986924, 7.3044703
Flers,FLS,61169,48.744785, -0.573216
Fleurieux-sur-l'Arbresle,FSL,69086,45.8449944, 4.6603815
Fleurville - Pont-de-Vaux,FLV,71591,46.4509279, 4.8840722
Flez-Cuzy - Tannay,FEZ,58286,47.3630583, 3.6149926
Foëcy,FCY,18096,47.1756905, 2.1625062
Foix,FXE,9122,42.969746, 1.607147
Folligny,FOL,50188,48.8299461, -1.4072231
Fons - Saint-Mamert,FMS,30112,43.9073195, 4.2066687
Font-Romeu-Odeillo-Via,FRM,66124,42.4912317, 2.0383917
Fontaine-le-Port,FPO,77188,48.4871358, 2.7514043
Fontainebleau - Avon,FON,77014,48.416371, 2.72634
Fontaines - Mercurey,FAE,71202,46.8512109, 4.7750693
Fontan - Saorge,FTO,6062,43.9966378, 7.5516262
Fontenay-le-Fleury,FAF,78242,48.8074032, 2.0404603
Fontenoy-sur-Moselle,FBE,54202,48.711721, 5.9803654
Fontpédrouse,FTB,66080,42.5138062, 2.1886585
Forbach,FOB,57227,49.1892278, 6.9013184
Formerie,FMR,60245,49.6542178, 1.7229081
Fors,FOW,79125,46.2345203, -0.4069449
Fos-sur-Mer,FOS,13077,43.428029, 4.974579
Foucart - Alvimare,FTA,76279,49.608289, 0.5969601
Fouday,FDY,67144,48.4248874, 7.1874246
Foug,FUG,54205,48.6792561, 5.7912761
Fougeray - Langon,FGL,35145,47.7297956, -1.8510921
Fougeré,FUE,49143,46.6653044, -1.2319718
Fouilloy,FIY,60248,49.7366368, 1.8260404
Fouquereuil,FQE,62349,50.5255091, 2.6074449
Fourchambault,FLT,58117,47.0189684, 3.0873673
Fourmies,FMI,59249,50.01541, 4.05357
Fraisses - Unieux,FRU,42099,45.3948228, 4.2610375
Franchet d'Esperey,FRP,51454,49.2425356, 4.013869
Francheville,FRW,69089,45.7336473, 4.7693729
Franconville - Le Plessis-Bouchard,FPB,95252,48.99358, 2.23514
Franois,FOI,25258,47.2273609, 5.937498
Frasne,FRA,25259,46.857596, 6.157767
Freinville Sevran,FSV,93071,48.926637, 2.519019
Fréjus,FRJ,83061,43.432032, 6.732941
Fréjus - Saint-Raphael Autotrain,FRT,83061,43.4288632, 6.7551022
Frénouville - Cagny,FVL,14287,49.1411192, -0.2603256
Frépillon,FPN,95256,49.0462, 2.19717
Fresnoy-le-Grand,FEG,2334,49.9501964, 3.43268
Fréteval - Morée,FRE,41095,47.8919172, 1.211813
Fretin,FRI,59256,50.5599254, 3.1495133
Frévin-Capelle,FVK,62363,50.3473177, 2.6338262
Fromental,FRO,87068,46.1715646, 1.4324317
Froncles Buxières,FCB,52211,48.29674, 5.14156
Frontenex,TFF,73121,45.6305461, 6.3140556
Frontignan,FRN,34108,43.444934, 3.758689
Frouard,FRD,54215,48.75545, 6.14411
Frynaudour,FYD,22233,48.7275919, -3.1284527
Fumay,FUY,8185,49.986048, 4.6926
Futuroscope,FTU,86062,46.669918, 0.377209
Gadagne,GDA,84036,43.9296817, 4.9568087
Gagny,GNQ,93032,48.883125, 2.527106
Gaillac,GAI,81099,43.905969, 1.894855
Gaillon - Aubevoye,GAA,27022,49.174626, 1.352461
Gallargues-le-Montueux,GGE,30123,43.716229, 4.1715027
Gallieni Cancéropôle,OGI,31555,43.5730877, 1.4195801
Galuzot,GLZ,71486,46.6421069, 4.3300578
Gambsheim,GHM,67151,48.6948699, 7.8791884
Gan,GNJ,64230,43.2335932, -0.391462
Gandrange - Amnéville,GDG,57019,49.2608222, 6.1358897
Gannat,GAN,3118,46.0975964, 3.2047514
Gannes,GNS,60268,49.5723315, 2.4370074
Gap,GAP,5061,44.563693, 6.085638
Garancières - La Queue,GAQ,78265,48.8106338, 1.7647546
Garches - Marnes-la-Coquette,GMK,920&4<48.81839(2.18&92
Garchizy,GZY<58121,47.0429987( 3.0858'69
Gazdanne,GDN,13241,$3.u5992, 5.46#332
Gardonne,GAO,24194,44.8347538, 0.3319427
Gargan,GAF,930%7<48.908159, 2.517109	
Ga2genvil|u,GGV,38267,48.98318, 1.8089
Gajges - Sarcel,eq.GCJ,95268,48.97.63, 2.39078
Gauriag}et,EGT,33103,45.0542936, -0.3992689
Gazeqn,GZA,68269,48.6259s83, 1.77188%7
Gazmnet Ce3tas,GAZ,33122,44.772218, - .69949
Geispolsheim,G@M,67152,48.5190515, 7.6943578
Gemeaux,GMX,21290,57.47x542, .1:93074
Génelrd,GEL,71212,46.5012177, 4.2379961
GÉnérac,GEC<30128,43.7325379, 4.3434742
GenlislGLS,21292(<.24555, 5.22386
Gennevillier,GEN,92036,4<.93368, 2.30699
GCnolxac,GNC,30130,44.3471627, 3.9516407
GerMaivE,GEA,51266,49.1277634, <.02289/6
GeRtwiller,GWL,67155,48.4133631, 7.4663166
Gerzat,gEZ,63164<45.8335879, 3.143q045
Gestel,GMS,77063,47.8029905, -.4431341Gevreq-Ghambertin,GCT,21295,47.*274694, 4.998058
Gien,GIE,4515-.67.699088, 2.>3v205
Gièvres,_SN,41097,4w.2787925, 1.6678267Gignac - Cressensac,GCC,46118<45.0146054,(1.4871648
Gimley,GQL$25271,47.0500626, 6.4925676
Villy-sur-Loire,GSL,7121,>6.737 13?, 3'821607
Gimont Cahu~ac(OAH,32147,43.6330525, 0.8676247
Fironde-sur-Dropt,GID.33187,44.-8;29, -0.0920127
Gisorw,GIS<2?84,49.28512. 1.78455
Givet,GVL,8190,50.1$025067, 4.817985=5
Oivors,GIV,69091,55584948, 4.76086
Givrs Canil,GIC,6809145.-957662,(4.7725754
Golfe Juan Vyllauris,GLF,6155,43.566501, 70/3578
Gonceli.,GOC,38181,45.341)43, 5.974136
Gonfaron,GFR8306?,43.317151v- 6.2816644
Gorges,_OE,44064,47.1001487, -1.358778
Gourdon,GOV,46127,44.7419445, ).89237
Gourland,GUL,22067,48.=609981, -3>1668191
Gournay - Ferrires,GF,76260,49.4813674, 9.7380891
Ggussainville,GOU,95280,49024073"< .4632464M
Goxwi||er,GXW,6714,48.4;2751, 7.4787"96
Grffenstaden,GRF,67152.48.-324377, 7.6897861
Oraffenwald,OFW,68#75,47.780832, 7.2247908GrccnagUe,GAG,31228,43.96179l 1.5677#1
Gramat,GRT,46108,46.7w34284, 1.7223 2
Grand Bourg,GBW,=1521,48.64800$, 2.435839
Gra~de-Synthe,GSV,59271,51.00r688$, 2.3133547
Grandvillars,GND,98053,47.53763, .978u
Grandvillyers,GAR$60286,49.75)3779, 1.938,83
Granville,GRV,50218,48.830,56, -1>587757
Grasse,GZA,6069,,3.653317, 6.925524
Gravelines,OVL,5927350.978736, 2*1232852Ora~ignyBalizy,GBI,=1345,48.685!718, 2.117046
Grenoble,GRE,38105,4.191493, 5.714584
Orenoble Universités - Gières,GRS,38179,45.184877, 5.7847t
GresswmlLeb,GEI,67168,48,53334, 7.42468
Fbéqy-sur-Aix,GAX,73128,45.72451>1,b5&9221751
Grèsy-sur-Isère<TGG,73129,<5.594432, 6.25((584
Gretz-ArmainvilLiers,GZT.77215$48.74544, 2.728824
Grigny Centru,GGG(91286,0x*65343, 2.395797M
_rigny le Siblon,LSB,69096,45.60/2601, 4.796144
Grisoles,GRI,82075,43.8269619, 1.3023292
Groi{y - Thorens-Glièrs,GTC,74137,,6.011105, 6.17568
Gros Noyer Caint-Prix,GNE,95218,48.996(2, 2>2588
Groslay,GNX,95288,48.984", 2.35358
Gudmmnt,DM,50230,48&338279, 5.1408271
Geésard - \a Celle-sur)Morin,GCM,7721,48. 10588, 2.9547x3
Curet,GTJ,2 9,6.1741:63, 1.8?93855Gué|xery,GTH<64249,43.4253491, -1.6098615
Guichen - Bourg-des-Comptes,GBC,35126,47.9350963, -1.7601845
Guignicourt,GUI,2360,49.434862, 3.961334
Guillerval,GUE,91294,48.3744455, 2.0598748
Guimiliau,GMU,29074,48.4852675, -3.9996163
Guingamp,GGP,22070,48.555659, -3.143343
Gujan-Mestras,GUJ,33199,44.640454, -1.06906
Gundershoffen,GUF,67176,48.905261, 7.6535345
Gunsbach - Griesbach,GSB,68109,48.0414908, 7.1748407
Habsheim,HAB,68118,47.737691, 7.417979
Hachette,HAC,59353,50.1582852, 3.7434526
Hagondange,HGD,57283,49.25356, 6.16448
Haguenau,HAG,67180,48.8134498, 7.7827255
Halsou - Larressore,HLS,64255,43.3781301, -1.4279003
Halte de Fontanil – Lycée de Drap,FLA,6054,43.7641521, 7.3388541
Haluchère Batignolles,HAD,44109,47.249142, -1.5224436
Ham,HAM,80579,49.73985, 3.07052
Ham-en-Artois,HMA,62407,50.5900401, 2.4657764
Hangest-sur-Somme,HAS,80416,49.9822011, 2.0661412
Harfleur,HAF,76341,49.5136336, 0.1989828
Harfleur Halte,HRF,76341,49.5059181, 0.192085
Hargicourt - Pierrepont,HGI,80419,49.7138593, 2.5317673
Hatrize,HZE,54253,49.1934741, 5.9071141
Haubourdin,HAU,59286,50.6070495, 2.990153
Haussmann Saint-Lazare,HSL,75109,48.87478, 2.32862
Haute Picardie TGV,HPI,80002,49.859182, 2.8319
Hautmont,HAT,59291,50.25398, 3.91522
Hayange,HAY,57306,49.33053, 6.07245
Haybes,HYM,8222,50.0116888, 4.7045378
Hazebrouck,HZK,59295,50.72501, 2.54129
Heiligenberg - Mollkirch,HEG,67299,48.5273135, 7.381426
Heilles - Mouchy,HEC,60307,49.340531, 2.2725858
Heilly,HLY,80426,49.9435191, 2.5396593
Hellemmes,HEL,59350,50.6226402, 3.1149328
Hendaye,HED,64260,43.353132, -1.781724
Hénin-Beaumont,HBE,62427,50.41706, 2.95211
Hennebont,HEN,56083,47.7990019, -3.2857467
Herbitzheim,HBZ,67191,49.0138973, 7.0801596
Herblay,HRY,95306,48.99042, 2.16208
Herchies,HEE,60310,49.4879546, 2.0109273
Héricourt,HCT,70285,47.5729701, 6.7691977
Héricy,HER,77226,48.4424848, 2.7605339
Hermes - Berthecourt,HRB,60065,49.3544055, 2.2416554
Herny,HYI,57319,49.0036084, 6.4769285
Herrlisheim,HRL,67194,48.7279056, 7.9102594
Herrlisheim-près-Colmar,HRH,68134,48.0166417, 7.3206381
Hesdigneul-lès-Boulogne,HES,62446,50.6609475, 1.6669967
Hesdin,HSD,62447,50.378286, 2.0351881
Hettange-Grande,HET,57323,49.4076754, 6.1566738
Hirson,HIQ,2381,49.91455, 4.08432
Hirson Écoles,HSO,2381,49.9288321, 4.0861491
Hochfelden,HCH,67202,48.7554199, 7.572355
Hoelschloch,HHH,67487,48.9163252, 7.8314949
Hoenheim Tram,HMT,67204,48.6285976, 7.7581387
Hoerdt,HOD,67205,48.7029518, 7.7794059
Hoffen,HFN,67206,48.9312475, 7.933587
Hombourg-Haut,HOH,57332,49.1261085, 6.7742703
Homécourt,HOM,54263,49.2182988, 5.9991714
Houdan,HOA,78310,48.7958005, 1.6027371
Houdemont,HDT,54265,48.645478, 6.1797255
Houilles - Carrières-sur-Seine,HAR,78311,48.9199636, 2.1850828
Houlgate,HOE,14338,49.3000711, -0.0772276
Hundling,HDC,57340,49.1066949, 6.9775394
Hunspach,HUS,67213,48.9616379, 7.9537409
Huriel,HIL,3128,46.3714332, 2.4762569
Hyères,HYE,83069,43.108867, 6.124223
Hymont - Mattaincourt,HAI,88246,48.2708192, 6.1402129
Igney,IYA,88247,48.2709639, 6.3995463
Igney - Avricourt,IAZ,54035,48.6467012, 6.8053062
Igny,IGY,91312,48.7399008, 2.2313626
Ille-sur-Têt,ILL,66088,42.6682396, 2.6242863
Illfurth,IFH,68152,47.6764322, 7.2685712
Illiers-Combray,ILC,28196,48.303937, 1.2448745
Imphy,IPY,58134,46.9333537, 3.2597113
Ingersheim - Cité Scolaire,ISC,68338,48.08883, 7.29823
Ingrandes sur Vienne,IGR,86111,46.8746283, 0.5691164
Ingrandes-Le Fresne-sur-Loire,IGA,49160,47.4056382, -0.9210198
Ingwiller,IGW,67222,48.8723277, 7.477155
Invalides,INV,75107,48.8619133, 2.3150151
Irigny Yvours,IRY,69100,45.69002, 4.83229
Is-sur-Tille,IST,21383,47.520454, 5.129481
Isbergues,BIO,62473,50.61399, 2.46277
Isles - Armentières - Congis,IAC,77231,48.9980994, 3.0072998
Issé,ISE,44075,47.6268289, -1.45068
Issoire,ISS,63178,45.543884, 3.25398
Issou - Porcheville,IPO,78314,48.97931, 1.78532
Issoudun,ISK,36088,46.948763, 1.985834
Issy Val de Seine,ISP,92040,48.8295555, 2.2635936
Issy-les-Moulineaux,ISY,92040,48.8201001, 2.2593469
Istres,ISR,13047,43.5153953, 4.9804272
Iteuil,ITL,86113,46.4841223, 0.3168298
Ivry-sur-Seine,IVN,94041,48.814371, 2.39099
Iwuy,IWY,59322,50.2255015, 3.3298634
Jacques Monod la Demi-Lieue,JAC,76341,49.5269596, 0.1861468
Janzé,JZE,35136,47.955364, -1.497538
Jarnac,JCB,16153,45.6711292, -0.1777613
Jarrie - Vizille,JAV,38200,45.0854543, 5.7424487
Jarville-la-Malgrange,JAR,54274,48.6698381, 6.2024643
Jassonneix,JSX,19136,45.5434698, 2.1393366
Jaunay-Clan,JAU,86115,46.682044, 0.3816535
Jaux,JAX,60325,49.3868029, 2.777316
Javel,JVL,75115,48.8462046, 2.2768401
Jeumont,JTJ,59324,50.29606, 4.08645
Jœuf,JOF,54280,49.2250083, 6.0177021
Joigny,JOI,89206,47.973843, 3.393082
Joigny-sur-Meuse,JGY,8237,49.8336807, 4.7672389
Joinville,JQI,52250,48.4442977, 5.143503
Joncet,JCT,66193,42.5615245, 2.3111464
Joncherey,JYE,90056,47.5262, 6.9988
Jonchery-sur-Vesle,JYV,51308,49.290057, 3.819422
Jonzac,JOH,17197,45.4387456, -0.44164
Joué-lès-Tours,JLT,37122,47.3541741, 0.6675586
Jouy,JOY,28201,48.5102582, 1.5573972
Jouy-en-Josas,JAS,78322,48.7650042, 2.1635294
Juan les Pins,JAE,6004,43.570896, 7.11144
Juvisy-sur-Orge,JYS,91326,48.68917, 2.38267
Juziers,JUZ,78327,48.99244, 1.84579
Kalhausen,KHS,57355,49.0350585, 7.125352
Ker Lann,KEL,35047,48.0429857, -1.7398306
Kerhostin,KHT,56234,47.5369524, -3.1363795
Kerhuon,KHO,29235,48.4096627, -4.3882136
Keskastel,KES,67234,48.9656988, 7.0489315
Kilstett,KIL,67237,48.6793065, 7.8549031
Koenigsmacker,KER,57370,49.3965538, 6.2735503
Kogenheim,KEN,67246,48.3389532, 7.5353085
Krimmeri Meinau,KRI,67482,48.56358, 7.75259
Kruth,KRD,68171,47.92396, 6.9690938
Kurtzenhouse,KUR,67252,48.741862, 7.8130449
L'Abbaye,ABJ,93046,48.922211, 2.516874
L'Aigle,LAE,61214,48.766229, 0.620014
L'Aiguille,AGF,87021,45.7783702, 1.2049024
L'Arbresle,LBL,69010,45.833299, 4.618319
L'Argentière Les Écrins,LEE,5006,44.7909802, 6.5564162
L'Ariane La Trinité,ATJ,6149,43.7343716, 7.3025298
L'Escarène,ESR,6057,43.8397674, 7.3517085
L'Estaque,LES,13216,43.363628, 5.3213598
L'Etang les Sablons,LEB,78224,48.872302065217156, 2.0688744062680113
L'Étang-la-Ville,ELW,78224,48.86822, 2.0766932
L'Herbergement - Les Brouzils,LHB,85108,46.9069172, -1.3712431
L'Hermitage - Mordelles,LHL,35131,48.123142, -1.8192987
L'Hôpital-du-Grosbois,LHO,25305,47.1691016, 6.2130861
L'Hospitalet-près-l'Andorre,LHT,9139,42.5894535, 1.8002635
L'Isle-Adam - Parmain,IAP,95480,49.11482, 2.20976
L'Isle-d'Abeau,ISA,38193,45.607645, 5.21969
L'Isle-Jourdain,LIJ,32160,43.617185, 1.089829
L'Isle-sur-la-Sorgue - Fontaine-de-Vaucluse,LFV,84054,43.917393, 5.047615
L'Isle-sur-le-Doubs,ISD,25315,47.4473777, 6.5812614
L'Isthme,LIH,56234,47.54653639699773, -3.1335359717958777
La Barasse,LBC,13055,43.2858384, 5.4845101
La Barre Ormesson,LBJ,95197,48.96633, 2.31688
La Basse Indre - Saint-Herblain,LBI,44162,47.2040872, -1.6603088
La Bassée - Violaines,BII,59051,50.52799, 2.80482
La Bastide - Saint-Laurent-les-Bains,LBS,48021,44.5934829, 3.9042849
La Baule Les Pins,BFP,44055,47.2835196, -2.3648441
La Baule-Escoublac,LBE,44055,47.28869, -2.389102
La Bernerie-en-Retz,BNX,44012,47.0832616, -2.0341408
La Bohalle,WBH,49032,47.4342356, -0.4000426
La Bonneville-sur-Iton,BVU,27082,48.9884615, 1.035014
La Borne Blanche,BBN,60482,49.126985, 2.5058656
La Bouteille,WBT,2109,49.8596168, 3.9817635
La Brigue,WBI,6162,44.0625669, 7.6056235
La Brillanne - Oraison,LBO,4034,43.9247771, 5.8923199
La Brohinière,LBR,35184,48.2134717, -2.110452
La Cave,WCA,24256,45.1839595, 0.628305
La Celle-Saint-Cloud,LCB,78126,48.84259, 2.13797
La Chaize-le-Vicomte,CZC,85046,46.676779, -1.2820678
La Chapelle-Saint-Mesmin,LCS,45075,47.8929293, 1.8268193
La Chapelle-sur-Loire,WSL,37058,47.251227, 0.2184812
La Charité-sur-Loire,LAT,58059,47.179914, 3.023883
La Chaumusse - Fort-du-Plasne,WFP,39126,46.6048753, 5.9613342
La Chaussée-Saint-Victor,WSV,41047,47.6127952, 1.3537834
La Ciotat - Ceyreste,LTV,13028,43.199593, 5.632647
La Clayette - Baudemont,CYB,71022,46.2881469, 4.2984195
La Coquille,LCQ,24133,45.5408509, 0.9744005
La Courneuve - Aubervilliers,ALC,93027,48.9242, 2.38443
La Couronne,LCO,16113,45.604570970062376, 0.1011570895580505
La Couronne Carro,CRQ,13056,43.3398078, 5.0517077
La Crau,LUV,83047,43.1449352, 6.0687663
La Crèche,CCK,79048,46.3604181, -0.2962081
La Croix de Méan,XDM,44184,47.300426, -2.1932575
La Douzillère,DZD,37122,47.3388167, 0.6528244
La Faloise,FLO,80299,49.696527, 2.3485813
La Fère,FER,2304,49.65802, 3.36981
La Ferté-Alais,LFA,91232,48.484876, 2.35161
La Ferté-Bernard,LFB,72132,48.1864887, 0.639711
La Ferté-Imbault,FTV,41084,47.3835442, 1.9580537
La Ferté-Milon,LFM,2307,49.1797269, 3.1207223
La Ferté-Saint-Aubin,LFS,45146,47.720975, 1.93236
La Ferté-sous-Jouarre,LFJ,77183,48.950741, 3.125577
La Fontaine,FOK,59653,50.5661459, 2.9261079
La Forest-Landerneau,FOO,29056,48.4263093, -4.3074515
La Fouillouse,LFI,42097,45.4977675, 4.3170839
La Frayère,FYS,6029,43.5581088, 6.9720902
La Fresnais,FSN,35116,48.593655, -1.8432199
La Frette - Montigny,FMY,95257,48.98035, 2.18019
La Garde,LGD,83062,43.1187044, 6.0100767
La Garenne-Colombes,LGK,92025,48.9093952, 2.2396414
La Gorp,GOP,33003,44.9288345, -0.4963844
La Gouesnière - Cancale - Saint-Méloir-des-Ondes,LGO,35299,48.6144207, -1.9058105
La Grand-Combe,LGC,30132,44.2098159, 4.0329591
La Grande-Paroisse,GPA,77210,48.3787751, 2.8971614
La Grave d'Ambarès,GVA,33003,44.9356421, -0.477021
La Guerche-sur-l'Aubois,GUA,18108,46.9477388, 2.9485731
La Guierche,GUH,72147,48.1138773, 0.1931016
La Haie-Fouassière,LHE,44070,47.1615899, -1.392195
La Hisse,HIZ,22327,48.4961248, -2.0036608
La Hume,HUE,33199,44.639879, -1.116
La Hutte Coulombiers,LHU,72097,48.303495, 0.1056788
La Jarrie,JAJ,17194,46.12045, -1.02347
La Jonchère-Saint-Maurice,JOC,87079,45.9944577, 1.4803853
La Joux,JOO,74056,45.9657075, 6.910179
La Levade,LLE,30132,44.228602, 4.0102736
La Loupe,LLP,28214,48.4737398, 1.0109416
La Madeleine,LMA,59368,50.6608037, 3.0725804
La Marche,MKF,58155,47.1396975, 3.0395468
La Méaugon,MHT,22144,48.4996127, -2.8439358
La Membrolle-sur-Choisille,LRL,37214,47.4313179, 0.6407872
La Ménitré,MEQ,49201,47.397422, -0.275818
La Meyze,MYZ,87096,45.6212964, 1.2123135
La Mothe-Achard,LEH,85152,46.6068648, -1.6596359
La Mothe-Saint-Héray,LHY,79246,46.3807592, -0.1298415
La Norville - Saint-Germain-lès-Arpajon,NGE,91457,48.591617, 2.267586
La Pauline Hyères,LPH,83062,43.1364769, 6.0351027
La Penne-sur-Huveaune,PHE,13070,43.2846765, 5.5155698
La Plaine Stade de France - Saint-Denis - Aubervilliers,LPN,93066,48.91839, 2.36257
La Pomme,PPO,13211,43.2905165, 5.4413152
La Porcherie,PHR,87120,45.5740586, 1.5383469
La Possonnière,LPO,49247,47.3713848, -0.6917009
La Poterie,PTK,35238,48.0923448, -1.6307729
La Redonne Ensuès,RDS,13033,43.33447, 5.1975675
La Réole,REO,33352,44.579742, -0.03057
La Ricamarie,LRM,42183,45.4041516, 4.360686
La Rivière de Mansac,LDZ,19124,45.139681, 1.3655086
La Rivière-Drugeon,RIW,25493,46.8701507, 6.2133331
La Roche-Maurice,ROW,29237,48.4740885, -4.2050964
La Roche-sur-Foron,LRF,74224,46.06756, 6.303885
La Roche-sur-Yon,LRY,85191,46.67212, -1.435621
La Rochefoucauld,LRO,16281,45.7401921, 0.3895946
La Rochelle,LRE,17300,46.15269, -1.145305
La Rochelle Porte Dauphine,LRA,17300,46.16755, -1.1518412
La Seyne - Six-Fours,LSM,83126,43.116959, 5.876966
La Souterraine,LST,23176,46.239792, 1.492151
La Suze-sur-Sarthe,LSZ,72346,47.8919891, 0.0266367
La Taye,LTA,28337,48.4077566, 1.3734019
La Teste-de-Buch,TTE,33529,44.636924, -1.14295
La Tour-de-Salvagny,TSW,69250,45.7998818, 4.7164921
La Tour-du-Pin,LTP,38509,45.560277, 5.450092
La Tricherie,LTR,86019,46.7288206, 0.4412021
La Trinité Victor,TVR,6149,43.7427854, 7.3114604
La Valbonne,VAO,1032,45.849225, 5.124911
La Verpillière,VEI,38537,45.6276, 5.150866
La Verrière,VYL,78644,48.7556954, 1.943674
La Ville Gozet,GOZ,3185,46.3497686, 2.5918028
La Ville-Dieu-du-Temple,LIX,82096,44.0355186, 1.2149646
La Villette Saint-Prest,VTP,28358,48.4827197, 1.5228734
La Wantzenau,LWL,67519,48.6651895, 7.8247832
Labège Innopole,FRV,31254,43.5473613, 1.5129784
Labège Village,LEJ,31254,43.5305367, 1.5329207
Labenne,LBN,40133,43.5870509, -1.4288712
Labergement-Sainte-Marie,GYR,25320,46.77632, 6.28011
Laboissière - Le Déluge,DEJ,60330,49.2885368, 2.1361486
Labouheyre,LBH,40134,44.2106292, -0.9209296
Labruguière,LBG,81120,43.5425692, 2.2594728
Lacapelle-Viescamp,WCV,15088,44.9202424, 2.2654689
Lacelle,WCL,19095,45.6412701, 1.8264798
Lachaud Curmilhac,LDQ,43013,45.1228045, 3.6104913
Lacourtensourt,LNT,31555,43.6638838, 1.4138687
Lafarge,LAF,87150,45.6338338, 1.130859
Lagny - Thorigny,LGY,77464,48.88218325, 2.70404228
Laguépie,LPB,82088,44.1455256, 1.9692195
Laifour,LFU,8242,49.911256, 4.6923484
Laigné - Saint-Gervais,LSG,72287,47.8740074, 0.2172097
Laigneville,LAI,60342,49.29276, 2.44894
Laillé,LLJ,35126,47.9717527, -1.7495654
Laissac,LVY,12120,44.3750307, 2.8222251
Laissey,LJY,25323,47.298723, 6.23304
Lalbenque - Fontanes,LNQ,46109,44.3332389, 1.5116628
Lalinde,LLK,24223,44.8396152, 0.7427811
Lamagistère,LWG,82089,44.1267231, 0.8255002
Lamanon,LMN,13049,43.6999662, 5.0913333
Lamballe,LAM,22093,48.46606, -2.511546
Lamonzie-Saint-Martin,LZE,24225,44.8450247, 0.3854609
Lamothe-Landerron,LOH,33221,44.5628433, 0.0451406
Lamothe-Montravel,LMH,24226,44.8537384, 0.0215683
Lamotte-Beuvron,LBQ,41106,47.593898, 2.022499
Lamure-sur-Azergues,LAZ,69107,46.0610834, 4.4921137
Lancerf,LNF,22233,48.761873, -3.1181396
Lancey,LCW,38547,45.2344784, 5.8809758
Landas,LDD,59330,50.4687775, 3.290568
Landaul - Mendon,LDJ,56096,47.7359877, -3.0860172
Landébia,LDB,22096,48.5074212, -2.3313716
Landerneau,LDO,29103,48.453572, -4.256528
Landévant,LDM,56097,47.759578, -3.1251313
Landivisiau,LDI,29105,48.496002, -4.082181
Landrecies,LNR,59331,50.1283138, 3.681997
Landry,LAY,73142,45.5741713, 6.7338182
Laneuveville-devant-Nancy,LNV,54300,48.65564, 6.22792
Langeac,LNG,43112,45.10125, 3.490672
Langeais,LGS,37123,47.324114, 0.410557
Langogne,LGG,48080,44.732776, 3.8573047
Langon,LGE,33227,44.555448, -0.25554
Langres,LAG,52269,47.8769474, 5.3444064
Lannemezan,LNZ,65258,43.114273, 0.387367
Lannion,LNI,22113,48.727638, -3.460353
Lantenay,LWP,21339,47.3351085, 4.860963
Laon,LAO,2408,49.57061, 3.62443
Lapeyrouse,LPY,63187,46.2267825, 2.893393
Laragne-Montéglin,LRN,5070,44.3164984, 5.8189832
Lardenne,KPL,31555,43.5966262, 1.3839252
Lardy,LYO,91330,48.520639, 2.255739
Laroche - Migennes,LAR,89257,47.960998, 3.513191
Laroque-Timbaut,LRQ,47138,44.2875163, 0.7497189
Laroquebrou,LQB,15094,44.9641658, 2.1929167
Lathus-Saint-Rémy,LHX,86120,46.3380917, 0.965009
Latour-de-Carol - Enveitg,LTL,66066,42.4590464, 1.9045027
Lauterbourg,LTG,67261,48.9676973, 8.1826817
Laval,LAL,53130,48.076206, -0.760907
Laval-de-Cère,LLC,46163,44.9512118, 1.9317113
Lavaufranche,LVF,23104,46.3212869, 2.2700972
Lavaur,LVR,81140,43.703479, 1.813146
Lavaveix-les-Mines,LXM,23105,46.0795307, 2.0890801
Laveline-devant-Bruyères,LVB,88262,48.185596, 6.7512466
Lavilletertre,VWT,60356,49.2024666, 1.9206361
Lavoûte-sur-Loire,LVL,43119,45.1214503, 3.9054101
Le Blanc-Mesnil,BAM,93029,48.93248, 2.47747
Le Bosquet,BQJ,6029,43.5515285, 6.9816599
Le Bouscat - Saint-Germaine,LGM,33069,44.870926495346204, -0.614049444932229
Le Bousquet-d'Orb,LBD,34038,43.6912097, 3.1689379
Le Bras de Fer,BFX,91228,48.623287, 2.450625
Le Breuil-sur-Couze,BCZ,63052,45.4670838, 3.2621478
Le Buet,BVQ,74290,46.018805, 6.9204119
Le Bugue,BDG,24067,44.9056892, 0.942795
Le Buisson-de-Cadouin,LBU,24068,44.84723, 0.9081756
Le Burg,WBW,19278,45.2157957, 1.4298135
Le Cailar,LCI,30059,43.6834141, 4.2354236
Le Cateau-Cambrésis,LCA,59136,50.0914606, 3.5400454
Le Cellier,LEI,44028,47.3135164, -1.3506694
Le Cendre - Orcet,CZJ,63069,45.723796, 3.188666
Le Chambon-Feugerolles,LCF,42044,45.3947427, 4.3223823
Le Chénay Gagny,CGG,93032,48.877129, 2.552692
Le Coteau,LCU,42071,46.023984, 4.086248
Le Coudray-Montceaux,CEX,91179,48.5661679, 2.4924649
Le Creusot,LCR,71153,46.807815, 4.4304403
Le Creusot - Montceau-les-Mines - Montchanin TGV,LCM,71187,46.765343, 4.499513
Le Croisic,LCC,44049,47.289836, -2.507442
Le Dorat,LDT,87059,46.2110908, 1.0793364
Le Dramont,DRW,83118,43.4178193, 6.8442467
Le Fauga,FGA,31181,43.4043288, 1.2827183
Le Genest-Saint-Isle,GST,53103,48.0967372, -0.8858084
Le Grand Jardin,GDJ,14366,49.1505827, 0.2271143
Le Grand-Lemps,LGL,38182,45.3966261, 5.4231117
Le Grau-du-Roi,LGR,30133,43.5371273, 4.140338
Le Haut Banc,HTB,62329,50.8163364, 1.7722209
Le Havre,LHA,76351,49.492996, 0.125677
Le Havre Graville,LHG,76351,49.4998007, 0.1608551
Le Lioran,LLN,15101,45.0905458, 2.7533365
Le Luc - Le Cannet,LEC,83031,43.3902379, 6.3430972
Le Mans,LEN,72181,47.995689, 0.192578
Le Mée-sur-Seine,WEE,77285,48.540086, 2.624116
Le Méridien La Ferrière,WER,69244,45.7684995, 4.7484432
Le Merlerault,LLT,61275,48.7024888, 0.2832169
Le Meux - La Croix-Saint-Ouen,LXS,60402,49.3594029, 2.7532645
Le Molay-Littry,MLW,14370,49.2493263, -0.8809741
Le Monastier-Pin-Moriès,LMR,48099,44.5089682, 3.252057
Le Pallet,PLL,44117,47.143831, -1.346898
Le Péage-de-Roussillon,PGR,38298,45.371797, 4.795402
Le Pénity,PYV,22052,48.3646275, -3.4763815
Le Perray-en-Yvelines,LPE,78486,48.6933406, 1.856057
Le Plessis Chenet,IBM,91179,48.5735652, 2.479586
Le Plessis-Belleville,PLB,60500,49.0959033, 2.7448073
Le Poirier Université,LEP,59603,50.33006, 3.50273
Le Pont-de-Beauvoisin,POB,38315,45.524636, 5.680772
Le Pont-de-Claix,PDC,38317,45.1251549, 5.6998669
Le Pouliguen,LIG,44135,47.2825404, -2.4331446
Le Puy-en-Velay,LPU,43157,45.042866, 3.892421
Le Quesnoy,LQY,59481,50.25021, 3.64552
Le Raincy - Villemomble - Montfermeil,RVM,93062,48.889325, 2.512062
Le Rouget,LRG,15268,44.8565391, 2.2355043
Le Soler,LSL,66195,42.6787626, 2.7930798
Le Stade,LSD,92025,48.93093, 2.26056
Le Teich,TEH,33527,44.632507, -1.025556
Le Teil,LTE,7319,44.5525285, 4.685992
Le Theil - La Rouge,LFQ,61356,48.2672964, 0.6944581
Le Theil-de-Bretagne,TIB,35333,47.918742, -1.4319925
Le Thor,LTH,84132,43.9265047, 4.9962663
Le Toec,TOE,31555,43.5956037, 1.4014496
Le Trayas,TYA,83118,43.4746639, 6.9243444
Le Tréport - Mers-les-Bains,LTM,76711,50.0628592, 1.3763738
Le Val d'Or,VDO,92064,48.85645, 2.21636
Le Verdon-sur-Mer,LVD,33544,45.5492065, -1.0650925
Le Vernet d'Ariège,VVT,9331,43.1894138, 1.6116214
Le Vert de Maisons,VDP,94002,48.78934, 2.43148
Le Vieux Briollay,VXB,49048,47.5739696, -0.4829396
Leforest,LEF,62497,50.4278, 3.05977
Lens,LNS,62498,50.426818, 2.828254
Lentilly,LTY,69112,45.82163, 4.667103
Lentilly Charpenay,CNJ,69112,45.8165247, 4.6824009
Lépanges,LPV,88266,48.1727165, 6.6722884
Lépin-le-Lac - La Bauche,LPL,73145,45.541519, 5.7649834
Lérouville,LEL,55288,48.7972181, 5.5387053
Les Abrets - Fitilieu,FII,38165,45.5421091, 5.5754876
Les Arcs - Draguignan,LAC,83004,43.455524, 6.482498
Les Ardoines,LAD,94081,48.782945, 2.409046
Les Aubrais,LAB,45147,47.926801, 1.906629
Les Bardys,LBY,87178,45.9046873, 1.377389
Les Bons Pères,BJP,59514,50.2798638, 4.010967
Les Bossons,BHS,74056,45.9067455, 6.8391969
Les Boullereaux Champigny,BXP,94017,48.824926, 2.511884
Les Cabannes,CNB,9070,42.7862854, 1.6862985
Les Cabrils,KBI,34233,43.779707, 3.1860831
Les Cauquillous,CQO,81140,43.7340198, 1.7546798
Les Clairières de Verneuil,KVE,78642,48.9922407, 1.955265
Les Coquetiers,LQT,93077,48.89244, 2.499415
Les Deux Jumeaux,HPZ,64260,43.3699568, -1.7643532
Les Échets,ECH,1249,45.8746675, 4.9108215
Les Églisottes-et-Chalaures,EGE,33154,45.0942299, -0.0437576
Les Essarts-le-Roi,LSI,78220,48.7217171, 1.8904047
Les Eyzies-de-Tayac-Sireuil,EYZ,24172,44.9411916, 1.0081942
Les Flachères,FLD,69044,45.7774345, 4.7541523
Les Fontinettes,LTS,62193,50.940831, 1.8496343
Les Grésillons,LEG,92036,48.92007, 2.31441
Les Houches,HOU,74143,45.8935639, 6.796924
Les Islettes,ISL,55253,49.10635, 5.00184
Les Lacs,LCK,35252,48.1094359, -1.3208165
Les Laumes Alésia,LLA,21663,47.543054, 4.462602
Les Mais,LQW,22025,48.4262577, -3.3828609
Les Martres-de-Veyre,MVY,63214,45.688155, 3.193228
Les Moussoux,MQK,74056,45.9166347, 6.8589899
Les Moutiers-en-Retz,MVB,44106,47.0618983, -2.0009628
Les Mureaux,LMU,78440,48.9927897, 1.9129871
Les Noues,LNX,95280,49.03234, 2.47633
Les Ormes,ORE,86183,46.9718269, 0.6079476
Les Pavillons-sous-Bois,PVB,93057,48.902418, 2.511781
Les Pélerins,PKN,74056,45.9125671, 6.8472858
Les Perrières,PEF,58303,47.0055213, 3.1467144
Les Praz de Chamonix,PZI,74056,45.9394594, 6.888753
Les Quatre Roues,QRS,41185,47.3325521, 1.7025282
Les Quatre-Routes-du-Lot,LQR,46232,44.9974864, 1.6439067
Les Ramassiers,RAM,31555,43.6024594, 1.3528032
Les Rosiers-sur-Loire,ROR,49261,47.3625386, -0.2205371
Les Sables Blancs,LSA,56168,47.57518, -3.13201
Les Sables-d'Olonne,LSO,85194,46.499917, -1.78105
Les Salelles,SQL,48185,44.4832687, 3.2804008
Les Saules,LSW,94054,48.7454924, 2.417366
Les Tines,TNJ,74056,45.9505693, 6.8991603
Les Trillers,TIS,3301,46.4147461, 2.6001018
Les Vallées,LWA,92009,48.913408, 2.257909
Les Versannes,VSJ,24156,45.088775, 0.8574682
Les Yvris Noisy-le-Grand,LYV,93051,48.823182, 2.579828
Lesparre-Médoc,LSE,33240,45.3035166, -0.9454015
Lesquin,LEQ,59343,50.59068, 3.11771
Lestelle-de-Saint-Martory,LTJ,31296,43.1188355, 0.9132139
Leucate La Franqui,LEU,11202,42.9327725, 3.0128555
Leval,LLW,59344,50.1845311, 3.8366811
Lexos,LEX,82187,44.1423958, 1.8851014
Lezennes,LZS,59350,50.6205699, 3.0986481
Lézignan-Corbières,LZA,11203,43.1999609, 2.7699635
Lezoux,LEZ,63195,45.8212175, 3.385986
Liancourt - Rantigny,LIA,60524,49.32471, 2.44532
Liancourt-Saint-Pierre,LQK,60361,49.2204964, 1.905543
Liart,LIR,8254,49.7700597, 4.3355138
Libercourt,LIK,62907,50.48025, 3.00867
Libourne,LIB,33243,44.915888, -0.236344
Liesle,LJL,25336,47.0587683, 5.8208121
Lieusaint - Moissy,LIU,77251,48.628305, 2.568935
Liévin,LVW,62510,50.434139, 2.7716316
Ligugé,LGJ,86133,46.5203091, 0.3331733
Lille CHR,ECR,59350,50.61432, 3.03432
Lille Europe,LEW,59350,50.639224, 3.075796
Lille Flandres,LLF,59350,50.636577, 3.06987
Lille Porte de Douai,PED,59350,50.6119054, 3.075837
Lillers,LLL,62516,50.56163, 2.47903
Limay,LSH,78335,48.9841, 1.74731
Limeray,LIZ,37131,47.4502088, 1.0499661
Limersheim,LHJ,67200,48.4617328, 7.6603581
Limoges Bénédictins,LIM,87085,45.836089, 1.267356
Limoges Montjovis,LMJ,87085,45.8384117, 1.2514147
Limoux,LMX,11206,43.0563831, 2.2228288
Limoux Flassian,LMF,11206,43.0684511, 2.2182832
Lingolsheim,LGH,67267,48.5594092, 7.6781143
Lisieux,LIS,14366,49.138299, 0.231143
Lisle-sur-Tarn,LSU,81145,43.85639, 1.80823
Lison,LSN,14367,49.226834, -1.050339
Liverdun,LDN,54318,48.7493158, 6.0617374
Livron-sur-Drôme,LIV,26165,44.7796035, 4.8305412
Livry-sur-Seine,LYQ,77255,48.5104579, 2.6788796
Lizy-sur-Ourcq,LZO,77257,49.021929, 3.031718
Loches,LOY,37132,47.130464, 1.000467
Logelbach,LOJ,68374,48.087299, 7.3206082
Loison-sous-Lens,LOO,62523,50.4401891, 2.8592403
Loivre,LXV,51329,49.3466786, 3.9906699
Longages - Noé,LNN,31303,43.3563239, 1.2519529
Longecourt-en-Plaine,LJK,21353,47.1937936, 5.1346952
Longjumeau,LJU,91345,48.7020364, 2.2943957
Longpont,LJP,2438,49.2726851, 3.2301676
Longpré-les-Corps-Saints,LGP,80488,50.01128, 2.00277
Longroy - Gamaches,LOG,76394,49.9818917, 1.5526598
Longueau,LUA,80489,49.86344, 2.35215
Longueil-Annel,LPK,60368,49.4672441, 2.8634086
Longueil-Sainte-Marie,LUE,60369,49.3425377, 2.7175537
Longuerue - Vieux-Manoir,LWM,76738,49.5566781, 1.2762275
Longueville,LON,77260,48.513703, 3.249822
Longueville-sur-Scie,LEV,76397,49.7917558, 1.1103434
Longuyon,LGN,54322,49.4442555, 5.604482
Longwy,LWY,54323,49.5129923, 5.7696358
Lons-le-Saunier,LLS,39300,46.66858, 5.551108
Loos lez Lille,LLZ,59360,50.6128165, 3.0170581
Loos-en-Gohelle,LQG,62498,50.4378798, 2.7933955
Loreux,LXU,41118,47.3902731, 1.8345356
Lorient Bretagne Sud,LRT,56121,47.755597, -3.366221
Loriol-sur-Drôme,LOL,26166,44.7544973, 4.8171679
Lorraine TGV,TGL,57422,48.947773, 6.169838
Lothiers,LOT,36219,46.6946801, 1.5629763
Louhans,LHN,71263,46.6309, 5.2174853
Louhossoa,LWV,64350,43.3057578, -1.3624626
Loulay,LLY,17211,46.0435165, -0.5017525
Lourches,LOU,59504,50.3102834, 3.3434016
Lourdes,LDS,65286,43.10037, -0.042174
Louroux-de-Bouble,LXB,3152,46.2241289, 2.9849368
Louveciennes,LFC,78350,48.8610361, 2.1230176
Louverné,LVX,53140,48.1088564, -0.7144109
Louvres,LOV,95351,49.0496573, 2.5018967
Louvroil,LWF,59392,50.2683469, 3.9535768
Lozanne,LOZ,69121,45.85414, 4.681501
Luant,LUK,36101,46.7357683, 1.5901964
Luc,LCZ,48086,44.654092, 3.8915631
Luc-en-Diois,LDE,26167,44.6136615, 5.4546227
Luc-la-Primaube,LPA,12133,44.2913982, 2.5544751
Lucé,LCJ,28218,48.4366725, 1.4529681
Luçon,LRK,85128,46.4638232, -1.1674217
Ludon-Médoc,LXN,33256,44.9744015, -0.6118009
Ludres,LUD,54328,48.6219545, 6.1709118
Lumes,LUQ,8263,49.7327973, 4.7833571
Lunas,LKH,34144,43.7095814, 3.1948986
Lunel,LUN,34145,43.679392, 4.131086
Lunel-Viel,LWQ,34146,43.6811729, 4.0937398
Lunery,LNY,18133,46.9351795, 2.275014
Lunéville,LNE,54329,48.588233, 6.49727
Lurbe-Saint-Christau,CLE,64360,43.12099, -0.60408
Lure,LUR,70310,47.683269, 6.4925787
Lus-la-Croix-Haute,LCX,26168,44.6709898, 5.6973678
Lusignan,LUI,86139,46.4354949, 0.116555
Lussac-les-Châteaux,LLX,86140,46.4051106, 0.7186918
Luttenbach-près-Munster,LFZ,68193,48.0352559, 7.1186307
Lutzelbourg,LZF,57427,48.7299065, 7.2516808
Lutzelhouse,LZH,67306,48.51812, 7.29391
Luxé,LXC,16196,45.8873947, 0.1094107
Luxeuil-les-Bains,LXL,70311,47.8148606, 6.3726593
Luzarches,LUZ,95352,49.11719, 2.42074
Luzenac - Garanou,LUG,9131,42.7642849, 1.7531248
Luzy,LUY,58149,46.7940793, 3.9693245
Lycée Henri Sellier,LHS,93046,48.91646, 2.51504
Lyon Gorge de Loup,LYL,69389,45.766078, 4.804631
Lyon Jean Macé,LJC,69387,45.74495, 4.84139
Lyon Part Dieu,LYD,69383,45.760559, 4.859355
Lyon Perrache,LPR,69382,45.748476, 4.825733
Lyon Saint-Exupéry TGV,SXA,69299,45.721109, 5.074969
Lyon Saint-Paul,LSP,69385,45.76601, 4.827057
Lyon Vaise,LVI,69389,45.779938, 4.80396
Macau,MCA,33262,45.0040981, -0.6200068
Machecoul,MCC,44087,46.9905038, -1.8227524
Machilly,MCI,74158,46.2512825, 6.3282335
Mâcon,MAC,71270,46.302572, 4.824887
Mâcon Loché TGV,MLH,71270,46.282884, 4.778876
Magalas,MGA,34147,43.4675998, 3.2295415
Magenta,MAG,75110,48.87986, 2.35835
Magland,MGD,74159,46.016945, 6.6215075
Magnac - Vicq,MGQ,87203,45.6288007, 1.4438445
Magnette,MGR,3010,46.4641418, 2.6028771
Magneux - Courlandon,MXN,51337,49.3100006, 3.7331444
Magny - Blandainville,MBW,28225,48.3342906, 1.2811066
Maillé,MAX,37142,47.0533855, 0.5830236
Mailly-la-Ville,MIY,89237,47.6041692, 3.6751472
Maintenon,MTN,28227,48.5854793, 1.5920651
Maisons-Alfort - Alfortville,MFA,94046,48.802071, 2.426977
Maisons-Laffitte,MLF,78358,48.9456394, 2.1443153
Maisse,MSN,91359,48.39304, 2.39312
Maizières-lès-Metz,MMZ,57433,49.2155349, 6.1588762
Mâlain,MLI,21373,47.3270025, 4.8105362
Malansac,MLO,56123,47.6756185, -2.2961796
Malaunay - Le Houlme,MUA,76366,49.5133331, 1.0395776
Malesherbes,MAL,45191,48.2934325, 2.4012177
Malling,MKG,57437,49.42152, 6.302207
Mamirolle,MIJ,25364,47.1998712, 6.1617411
Mandelieu-la-Napoule,MPV,6079,43.523903, 6.941313
Manosque - Gréoux-les-Bains,MNQ,4112,43.8231945, 5.7933241
Mantes Station,MTQ,78361,48.98366, 1.71581
Mantes-la-Jolie,MTE,78361,48.98984, 1.70337
Marbache,MAH,54351,48.8010405, 6.1091755
Marcelcave,MCV,80507,49.8532165, 2.5819031
Marcheprime,MCP,33555,44.690543, -0.85381
Marchezais - Broué,MBR,28062,48.7684736, 1.513444
Mareil-sur-Mauldre,MJM,78368,48.8936804, 1.8715159
Maresquel-Ecquemicourt,MQU,62552,50.4078186, 1.9313418
Mareuil-sur-Ourcq,MAQ,60380,49.1355418, 3.075653
Margaux,MGU,33268,45.0358307, -0.6854145
Marienthal,MTK,67180,48.781863, 7.8231894
Marignier,MRG,74164,46.0887815, 6.507826
Marigny,MRJ,79166,46.1990832, -0.428404
Marle sur Serre,MRO,2468,49.747192, 3.7695801
Marles-en-Brie,MLB,77229,48.733976, 2.868099
Marlieux - Châtillon,MXC,1235,46.0638765, 5.0731097
Marly-le-Roi,MLR,78372,48.8713084, 2.0965436
Marmagne,MMH,18138,47.1001505, 2.2819971
Marmagne sous Creusot,MMS,71282,46.8334607, 4.3601911
Marmande,MMD,47157,44.503019, 0.168044
Marne-la-Vallée Chessy,MLV,77111,48.869856, 2.78272
Maroeuil,MUI,62557,50.322603, 2.6983279
Marolles-en-Hurepoix,MSX,91376,48.565345, 2.290327
Maromme,MRM,76474,49.479935, 1.050485
Marquette,MQT,59386,50.6724025, 3.0510262
Marquillies,MQS,59388,50.5477246, 2.8661707
Marquise - Rinxent,MRX,62711,50.8056635, 1.72988
Marquixanes,MQG,66103,42.6428224, 2.4858388
Marsac,MRR,23124,46.0941348, 1.585556
Marsac-sur-L'isle,MRA,24256,45.1860541, 0.6626174
Marseillan Plage,MPP,34150,43.3181964, 3.5355281
Marseille Blancarde,MBC,13204,43.29614391, 5.406559
Marseille Saint-Charles,MSC,13201,43.302666, 5.380407
Marseille-en-Beauvaisis,MAI,60387,49.5709066, 1.9546349
Marssac-sur-Tarn,MSS,81156,43.9151803, 2.026913
Martigné-Ferchaud,MAF,35167,47.8321302, -1.3137943
Martigues,MTG,13056,43.3929209, 5.0257804
Martres-Tolosane,MXA,31324,43.1962069, 1.0167558
Marvejols,MVJ,48092,44.5446819, 3.2810718
Massérac,MWK,44092,47.6745316, -1.9144441
Masseret,MST,19129,45.536175, 1.5415396
Massiac - Blesle,MIA,15119,45.2537695, 3.1965518
Massy - Palaiseau,MPU,91377,48.7264211, 2.2575281
Massy - Verrières,MVW,91377,48.7343097, 2.2736721
Massy Europe,MEU,91377,48.72342, 2.27194
Massy TGV,MPW,91377,48.725758, 2.261254
Matzenheim,MHW,67285,48.3987556, 7.6196003
Maubeuge,MBG,59392,50.27298, 3.96677
Maule,MAE,78380,48.90917, 1.85708
Maurecourt,MRK,78015,48.98712, 2.05963
Maurois,MAK,59311,50.0674506, 3.4562554
Maurs,MRS,15122,44.7061543, 2.1995656
Mauves-sur-Loire,MUE,44094,47.2930211, -1.3893042
Mauzac-et-Grand-Castang,MZJ,24260,44.8558291, 0.7899658
Mauzé-sur-le-Mignon,MAZ,79170,46.1995881, -0.6737264
Mauzens-et-Miremont,MZX,24261,44.9768912, 0.9571897
Mayet,MYT,72191,47.7601465, 0.2659384
Mazamet,MZT,81163,43.4977847, 2.3747346
Mazingarbe,MJG,62563,50.4608957, 2.7005447
Meaux,MEA,77284,48.957759, 2.874041
Mehun-sur-Yèvre,MHY,18141,47.1394406, 2.2071342
Melun,MEL,77288,48.527662, 2.655404
Menars,EIR,41134,47.6450036, 1.405617
Mende,MDE,48095,44.522322, 3.5019875
Ménil Flin,MFN,54199,48.5050204, 6.6592265
Mennecy,MNY,91386,48.5709075, 2.433165
Mennessis,MKI,2474,49.6915989, 3.2711145
Mennetou-sur-Cher,MNN,41135,47.2688835, 1.8765238
Menton,MEN,6083,43.774444, 7.4933
Menton Garavan,MNJ,6083,43.785202, 7.517297
Mer,MER,41136,47.70586, 1.506373
Mérens-les-Vals,MLX,9189,42.6594883, 1.8371278
Mérenvielle,MWE,31339,43.6365051, 1.1503303
Méricourt - Ribemont,MTL,80530,49.9556384, 2.5726254
Mériel,MVC,95392,49.07777, 2.20528
Mérignac Arlac,MRF,33281,44.8265601, -0.6261402
Méroux,MOX,90068,47.58659, 6.89903
Mertzwiller,MZW,67291,48.872013, 7.6781895
Méru,MRU,60395,49.23233, 2.13254
Mervans,MRV,71295,46.7988928, 5.1794099
Merxheim,MXH,68203,47.9126413, 7.3022795
Méry-sur-Oise,MWO,95394,49.05766, 2.19074
Messac - Guipry,MES,35176,47.82225, -1.81822
Messein,MSJ,54366,48.6128788, 6.1378364
Mesves - Bulcy,MVU,58164,47.2420755, 3.0065175
Mesvres,MWB,71297,46.862799, 4.2449659
Metz,MZE,57463,49.109545, 6.176593
Metz Nord,MZD,57463,49.13673, 6.16791
Metzeral,MZL,68204,48.0133301, 7.0733383
Meudon,MDN,92048,48.8147527, 2.2410999
Meudon Val Fleury,MFY,92048,48.8079884, 2.2409045
Meulan - Hardricourt,MHD,78299,49.00564, 1.90213
Meung-sur-Loire,MGL,45203,47.829926, 1.691928
Meurchin,MHN,62573,50.4970516, 2.8930903
Meursault,MAT,21412,46.9690497, 4.7954444
Meuse TGV,TGM,55254,48.978549, 5.270954
Meximieux - Pérouges,MEX,1244,45.901615, 5.193534
Meymac,MYC,19136,45.5302313, 2.1640905
Meyrargues,MEY,13059,43.6440076, 5.5395738
Mézériat,MZF,1246,46.2350502, 5.046622
Mézidon-Canon,MEZ,14431,49.071, -0.07496
Mignaloux - Nouaillé,MGX,86157,46.5261427, 0.4117391
Milhaud,MHU,30169,43.7884886, 4.3033268
Millas,MYR,66108,42.6888961, 2.6937502
Millau,MAU,12145,44.102344, 3.07457
Milly-sur-Thérain,MYH,60403,49.5035256, 1.988233
Miniac-Morvan,MIN,35179,48.5315134, -1.914787
Mionnay,MIO,1248,45.8966784, 4.919752
Miramas,MAS,13063,43.580704, 5.000264
Miraumont,MIK,80549,50.0958521, 2.7344755
Mirecourt,MIR,88304,48.299243, 6.129651
Miribel,MIB,1249,45.822088, 4.95394
Mitry - Claye,MYV,77294,48.97569, 2.64247
Modane,MOD,73157,45.193365, 6.658161
Mohon,MNH,8105,49.752584, 4.73313
Moirans,MOA,38239,45.322185, 5.581915
Moirans La Galifette,MFE,38239,45.324154, 5.56517
Moissac,MOI,82112,44.1024178, 1.077345
Molinges,MGF,39339,46.3570706, 5.7682135
Molsheim,MOL,67300,48.53705, 7.50044
Mommenheim,MOH,67301,48.7561587, 7.6422273
Monestier-de-Clermont,MDC,38242,44.911996, 5.6339702
Monéteau - Gurgy,MEG,89263,47.8507856, 3.5798071
Monistrol-d'Allier,MNR,43136,44.9696648, 3.6500424
Monnaie,MON,37153,47.4987491, 0.7932851
Monnerville,MWW,91414,48.3484915, 2.0320595
Monsempron-Libos,MLS,47179,44.486631, 0.9412277
Mont de Terre,MXT,59350,50.6176672, 3.0966031
Mont-Dauphin - Guillestre,MOG,5052,44.6746283, 6.6156027
Mont-de-Marsan,MMR,40192,43.884898, -0.50466
Mont-Louis - La Cabanasse,MTC,66027,42.5020902, 2.1131379
Mont-sur-Meurthe,MMT,54383,48.5599456, 6.4496444
Montaignac-Saint-Hippolyte,MCE,19143,45.3546898, 1.9797531
Montaigu,MTV,85146,46.983705, -1.316236
Montaigut-le-Blanc,MUF,23132,46.1367425, 1.7339815
Montargis,MSR,45208,48.006862, 2.742783
Montastruc-la-Conseillère,MCL,31358,43.715985, 1.5979
Montataire,MOO,60414,49.2510365, 2.4362155
Montauban Ville Bourbon,MBN,82121,44.014387, 1.341496
Montauban-de-Bretagne,MDT,35184,48.190241, -2.052675
Montaudran,MQN,31555,43.5734591, 1.4804356
Montaut Bétharram,MHZ,64400,43.1269731, -0.1982813
Montbard,MBA,21425,47.618747, 4.33616
Montbarrey,MXB,39350,47.0359922, 5.6366081
Montbartier,MNG,82123,43.9241555, 1.264501
Montbazon,MNZ,37154,47.2917191, 0.7214769
Montbéliard,MBD,25388,47.5105086, 6.8013763
Montbizot,MBZ,72205,48.151513, 0.1908607
Montbrison,MOB,42147,45.604454, 4.078282
Montceau-les-Mines,MMI,71306,46.6706636, 4.3610264
Montchanin,MCH,71310,46.7592649, 4.4814867
Montdidier,MTD,80561,49.64147, 2.563
Montélimar,MTR,26198,44.559079, 4.744792
Montendre,MMM,17240,45.2805457, -0.3961726
Montereau,MTU,77305,48.379934, 2.942972
Montérolier - Buchy,MBY,76445,49.6031854, 1.3347457
Montescourt-Lizerolles,MCU,2504,49.7380842, 3.2519756
Monteux,MTX,84080,44.0374619, 4.9947813
Montfavet,MFT,84007,43.932635, 4.873943
Montferrand - Thoraise,MFH,25397,47.1847414, 5.9074815
Montfort-l'Amaury - Méré,MLM,78389,48.80224, 1.8153507
Montfort-le-Gesnois,MLG,72241,48.0405657, 0.4064237
Montfort-sur-Meu,MFS,35188,48.138878, -1.949141
Montgeron - Crosne,KRW,91421,48.708094, 2.462224
Montgeroult - Courcelles,MKU,95422,49.0805828, 2.0034959
Monthermé,MME,8081,49.865621, 4.74053
Montigny - Beauchamp,MBP,95051,49.00758, 2.19767
Montigny-en-Ostrevent,MYO,59414,50.36151, 3.18829
Montigny-sur-Loing,MKN,77312,48.33661, 2.738561
Montivilliers,MVL,76447,49.5429758, 0.189426
Montlaur,MKJ,31384,43.4752405, 1.5776454
Montlouis-sur-Loire,NTU,37156,47.3915307, 0.8173987
Montluçon,MLN,3185,46.338101, 2.596159
Montluçon Rimard,NTL,3185,46.3355913, 2.6115119
Montluel,MLU,1262,45.84777, 5.057503
Montmédy,MDY,55351,49.5228775, 5.3716718
Montmélian,MML,73171,45.503059, 6.043289
Montmoreau,MMA,16294,45.3982987, 0.1380013
Montmorillon,MMN,86165,46.4174979, 0.8737467
Montoir-de-Bretagne,MDB,44103,47.3210164, -2.1616777
Montpaon,MNP,12155,43.8685236, 3.1097221
Montpellier Saint-Roch,MPL,34172,43.604738, 3.880674
Montpellier Sud de France,MSF,34172,43.594787, 3.924623
Montpon-Ménestérol,MPI,24294,45.006326, 0.159328
Montrabé,MTB,31389,43.6450204, 1.5240482
Montréjeau - Gourdan-Polignan,MTJ,31224,43.078109, 0.5735
Montreuil,MFL,78646,48.8067323, 2.1511693
Montreuil sur Mer,MOM,62588,50.4661948, 1.7691662
Montreuil-Bellay,MBL,49215,47.1254181, -0.1482834
Montreuil-sur-Ille,MSI,35195,48.307292, -1.674155
Montreuil-sur-Thérain,MTF,60685,49.38152, 2.2002529
Montreux-Vieux,MVX,68215,47.6178576, 7.0253947
Montrichard,MRD,41151,47.3437658, 1.1717596
Montroc le Planet,MKZ,74056,45.996415, 6.9345425
Montrond-les-Bains,MRB,42149,45.644429, 4.248814
Montry - Condé,MYD,77315,48.8908268, 2.8262345
Monts,MSD,37159,47.2818, 0.65448
Montsoult - Maffliers,MSO,95430,49.06611, 2.32229
Montsûrs,MSW,53043,48.14149, -0.5506416
Montville,MVE,76245,49.551284, 1.070046
Moosch,MWH,68217,47.8607454, 7.0507631
Morannes,MNS,49220,47.7390902, -0.4179693
Morbier,MKE,39367,46.5392164, 6.0176446
Morcenx,MCX,40197,44.033565, -0.90864
Moret - Veneux-les-Sablons,MOR,77491,48.37838, 2.79941
Moreuil,MRE,80570,49.77699, 2.47582
Morez,MRZ,39368,46.5262166, 6.023578
Morgny-la-Pommeraye,MGN,76453,49.5232183, 1.2478526
Morhange,MHG,57483,48.9366239, 6.6590266
Morières-lès-Avignon,MVG,84081,43.9414696, 4.9082052
Morlaix,MXR,29151,48.57797, -3.832514
Mormant,MRT,77317,48.613564, 2.88881
Morre,MOE,25410,47.2259417, 6.0673029
Mortcerf,MOF,77318,48.7892191, 2.9075554
Morteau,MTO,25411,47.053727, 6.604653
Morvillars,MOV,90072,47.54952, 6.93511
Mothern,MQW,67305,48.9347327, 8.1615803
Motteville,MOT,76456,49.6365717, 0.8497988
Mouans-Sartoux,MUU,6084,43.620318, 6.974114
Mouchard,MCD,39370,46.976911, 5.799644
Moulin Galant,MJW,91174,48.58626, 2.47332
Moulins sur Allier,MSA,3190,46.561346, 3.338842
Moulis - Listrac,MUL,33297,45.0840273, -0.7447365
Moult - Argences,MTA,14456,49.1111851, -0.1864355
Mourmelon-le-Petit,MLP,51389,49.1313076, 4.3180982
Mouroux,MXK,77320,48.8139949, 3.0423421
Moustéru,MUW,22013,48.5074512, -3.2435052
Moûtiers - Salins - Brides-les-Bains,MOS,73181,45.486344, 6.531425
Mouy - Bury,MUY,60116,49.32045, 2.32635
Moyeuvre-Grande,MGK,57491,49.246713, 6.043226
Muhlbach-sur-Munster,MHK,68223,48.0246077, 7.0875666
Muizon,MIZ,51391,49.2781012, 3.8915287
Mulhouse,MSE,68224,47.742224, 7.342396
Mulhouse Dornach,MDQ,68224,47.74713, 7.308477
Mulhouse Zu Rhein Tram-Train,MZR,68224,47.743561, 7.317015
Mullerhof,MFX,67500,48.52451, 7.3119577
Munchhausen,MHQ,67308,48.9237982, 8.1409912
Mundolsheim,MUM,67309,48.6447732, 7.721389
Munster,MUT,68226,48.0383438, 7.1341728
Munster Badischhof,MUB,68226,48.0390754, 7.1528861
Murat,MUR,15138,45.1091483, 2.8696045
Muret,MET,31395,43.464824, 1.324449
Musée d'Orsay,MDS,75107,48.86079, 2.325671
Mussidan,MUS,24299,45.034329, 0.354071
Mutzig,MTZ,67313,48.5337753, 7.4621581
Naintré,NIB,86174,46.7595303, 0.4963446
Najac,NAJ,12167,44.221802, 1.9761625
Namps - Quevauvillers,NAQ,80582,49.8082274, 2.1053184
Nançois - Tronville,NAE,55519,48.7180423, 5.2912016
Nancy,NCY,54395,48.689861, 6.174583
Nangis,NAN,77327,48.561336, 3.012619
Nanterre Université,NUN,92050,48.90122, 2.2158277
Nantes,NTS,44109,47.216148, -1.542356
Nanteuil - Saâcy,NAU,77397,48.9738082, 3.2200172
Nanteuil-le-Haudouin,NHY,60446,49.14275, 2.79459
Nantiat,NNA,87103,46.0056192, 1.1563734
Narbonne,NBN,11262,43.190387, 3.00591
Naucelle,NCE,12169,44.1854793, 2.363504
Neau,NEA,53163,48.1574807, -0.4766725
Négrondes,NEG,24308,45.3460288, 0.8611999
Nemours - Saint-Pierre,NSP,77431,48.267884, 2.685754
Nérondes,NDS,18160,46.9996897, 2.8221695
Nerpuy,NPY,86174,46.7834177, 0.5256884
Nesle,NES,80585,49.7639147, 2.9089882
Neufchâteau,NCH,88321,48.3583428, 5.6904018
Neufchâtel-Hardelot,NHA,62604,50.62364, 1.643115
Neuillé-Pont-Pierre,NPP,37167,47.5580135, 0.5649155
Neuilly - Porte Maillot,NPT,75117,48.877983, 2.284516
Neuilly-lès-Dijon,CVG,21452,47.2815829, 5.1111983
Neussargues,NEU,15141,45.1253044, 2.9791866
Neuves-Maisons,NAS,54397,48.6147666, 6.1078904
Neuvic,NVC,24309,45.0999632, 0.4450162
Neuville Université,NUE,95450,49.01426, 2.07886
Neuville-sur-Sarthe,NER,72217,48.0705577, 0.1997294
Neuvy-Pailloux,NPO,36140,46.883564, 1.8642473
Nevers,NVS,58194,46.987282, 3.150743
Nevers Le Banlay,NVB,58194,47.0068974, 3.1636746
Nexon,NNF,87106,45.6915692, 1.1784396
Nézel - Aulnay,NZL,78451,48.9387638, 1.8405298
Nice,NIC,6088,43.704556, 7.261904
Nice Pont Michel,NPM,6088,43.72175, 7.29144
Nice Riquier,NIR,6088,43.705554, 7.290175
Nice Saint-Augustin,NIA,6088,43.670728, 7.216199
Niederbronn-les-Bains,NLB,67324,48.9523989, 7.6341348
Nieppe,NPE,59431,50.6966975, 2.8289655
Nieul,NEW,87107,45.9273896, 1.1723974
Nîmes,NMS,30189,43.832291, 4.365845
Nîmes Pont du Gard,NIM,30155,43.81681, 4.50768
Niolon,NLO,13088,43.340223, 5.2569415
Niort,NRT,79191,46.319491, -0.454639
Niversac,NEC,24439,45.1383083, 0.8082195
Nœux-les-Mines,NOX,62617,50.48297, 2.67393
Nogent - Le Perreux,NLP,94052,48.838846, 2.494331
Nogent-l'Artaud - Charly,NAA,2555,48.968872, 3.3220981
Nogent-le-Rotrou,NGR,28280,48.3255926, 0.8103045
Nogent-sur-Seine,NOG,10268,48.49783878, 3.49372888
Nogent-sur-Vernisson,NGI,45229,47.8527938, 2.7375773
Nointel - Mours,NOJ,95452,49.1327, 2.28066
Noisy-le-Sec,NSY,93053,48.896288, 2.459306
Noizay,NIY,37171,47.4096869, 0.8959456
Nomain,NOM,59435,50.5023744, 3.2063499
Nonancourt,NCO,27438,48.7757257, 1.1929162
Nort-sur-Erdre,NSE,44110,47.4419243, -1.5033645
Nortkerque,NKQ,62621,50.8829544, 2.0231501
Notre-Dame de Briançon,NAB,73187,45.5393185, 6.4687785
Notre-Dame-d'Oé,NDA,37172,47.4595668, 0.7070252
Nouan-le-Fuzelier,NOF,41161,47.5337788, 2.0330957
Nouvion-sur-Meuse,NSM,8327,49.6973135, 4.794973
Nouzonville,NOU,8328,49.8120125, 4.7428155
Novéant-sur-Moselle,NEN,57515,49.028635, 6.052101
Novillars,NOV,25429,47.2839618, 6.1327011
Noyal - Acigné,NOC,35207,48.1187915, -1.5277646
Noyelles-sur-Mer,NOE,80600,50.1875408, 1.7045772
Noyen-sur-Sarthe,NON,72223,47.8744544, -0.0981755
Noyon,NOY,60471,49.57736, 3.00641
Nozières - Brignon,NOZ,30046,43.9760134, 4.2072916
Nuits sous Ravières,NUR,89280,47.7291142, 4.211186
Nuits-Saint-Georges,NUI,21464,47.130545, 4.956204
Nurieux-Volognat,NEX,1267,46.1842195, 5.5327486
Nyer,NYE,66123,42.5416979, 2.2630177
Obermodern-Zutzendorf,OBM,67347,48.8426083, 7.547015
Obernai,OBE,67348,48.46219, 7.48881
Objat,OBT,19153,45.2647335, 1.4068293
Oderen,ODE,68247,47.9118756, 6.9734829
Oermingen,OER,67355,49.0003724, 7.1317322
Ogeu-les-Bains,OLB,64421,43.153939, -0.5076467
Oissel,OSL,76484,49.34306, 1.101799
Olette - Canaveilles,OLE,66125,42.55472, 2.2719309
Ollioules - Sanary-sur-Mer,OLL,83090,43.122586, 5.824979
Olonne-sur-Mer,OSM,85166,46.5486605, -1.76738
Oloron-Sainte-Marie,OLN,64422,43.1947669, -0.6122826
Ondres,OND,40209,43.5685809, -1.4571793
Onville,ONV,54410,49.01367, 5.97909
Onzain - Chaumont-sur-Loire,OZA,41167,47.492, 1.18595
Orange,OGE,84087,44.137304, 4.819594
Orangis Bois de l'Épine,OBP,91521,48.63626, 2.407736
Orchamps,ORA,39396,47.1500962, 5.659147
Orchies,ORC,59449,50.47705, 3.24888
Orgerus - Béhoust,OGB,78465,48.8267809, 1.7028344
Orgon,ORG,13067,43.7859131, 5.0456738
Origny-en-Thiérache,OGY,2574,49.8906693, 4.0241558
Orléans,ORL,45234,47.90796, 1.904666
Orly Ville,OYI,94054,48.741815, 2.40265
Ormoy-Villers,ORM,60479,49.2003204, 2.8379502
Orry-la-Ville - Coye,ORY,60482,49.13895, 2.49
Ors,ORZ,59450,50.1031718, 3.626754
Orthez,ORT,64430,43.484242, -0.76776
Osny,OSN,95476,49.06283, 2.05771
Osséja,OSA,66130,42.4199665, 1.9771166
Ossès - Saint-Martin-d'Arrossa,OSS,64490,43.2352119, -1.3048922
Ossun,OSQ,65344,43.1833684, -0.0214839
Ostricourt,OIC,59452,50.44542, 3.03244
Oudon,ODK,44115,47.3433655, -1.291992
Ouges,OUS,21473,47.2559157, 5.0727895
Oullins,OUL,69149,45.7166261, 4.8135793
Ourscamp,OUA,60492,49.5341405, 2.9540017
Oyonnax,OYO,1283,46.259742, 5.653338
Ozoir-la-Ferrière,OZF,77350,48.77072, 2.689841
Pagny-le-Château,PYK,21475,47.0462492, 5.2010538
Pagny-sur-Meuse,PYM,55398,48.6965426, 5.7336468
Pagny-sur-Moselle,PMO,54415,48.9852003, 6.0250346
Paimpol,PIP,22162,48.77694, -3.0460958
Pamiers,PMS,9225,43.116207, 1.619451
Pamproux,PAP,79201,46.3996295, -0.051931
Pantin,PAN,93055,48.898096, 2.400685
Paray-le-Monial,PLM,71342,46.447312, 4.113744
Parc des Expositions,PEX,93078,48.97334, 2.51382
Parempuyre,PPY,33312,44.9447032, -0.6193396
Parent - Coudes - Champeix,PCC,63269,45.6139737, 3.2178245
Paris Bercy Bourgogne - Pays d'Auvergne,PBY,75112,48.83917, 2.38278
Paris Est,PES,75110,48.876742, 2.358424
Paris Saint-Lazare,PSL,75108,48.876242, 2.325331
Parsac - Gouzon,PCG,23149,46.1986154, 2.1744416
Pas des Lanciers,PDL,13054,43.409655, 5.253822
Pau,PAU,64445,43.291762, -0.369626
Pauillac,PAC,33314,45.2038438, -0.7551342
Paulhaguet,PLH,43232,45.2101978, 3.5004445
Pavilly,PSB,76495,49.563897, 0.950644
Peille,PEI,6091,43.7920239, 7.3800257
Peillon Sainte-Thècle,PXT,6092,43.767846, 7.366807
Peltre,PTE,57534,49.073877, 6.2220476
Penhoët,SZP,44184,47.2907444, -2.2008664
Penne-d'Agenais,PNE,47203,44.3799858, 0.8029779
Penthièvre,PTW,56234,47.5580254, -3.1330754
Péreire - Levallois,PRR,75117,48.8853581, 2.2979465
Pérenchies,PHI,59457,50.66697, 2.97729
Périgueux,PXR,24322,45.187408, 0.707879
Périgueux Saint-Georges,PSG,24322,45.1783328, 0.7336349
Pernes - Camblain,PEC,62197,50.4802048, 2.4310823
Pérols-sur-Vézère,POK,19160,45.5848341, 1.97767
Perpignan,PPN,66136,42.696292, 2.879779
Perrignier,PEG,74210,46.303259, 6.4249208
Pers,PEK,15150,44.887025, 2.2403887
Persan - Beaumont,PEB,95487,49.14795, 2.27914
Pertuis,MEK,84089,43.6845547, 5.5037023
Pessac,PSC,33318,44.80461, -0.63185
Pessac Alouette,ATF,33318,44.793355, -0.65965
Petit Jouy - Les Loges,PJZ,78343,48.770943, 2.1470148
Petit Vaux,PVY,91216,48.675859, 2.3339755
Petit-Croix,PZC,90071,47.6101045, 6.9947414
Peyrehorade,PRH,40224,43.5468102, -1.1157577
Peyrilhac - Saint-Jouvent,PYJ,87118,45.9596182, 1.1699844
Pezou,PEZ,41175,47.8673364, 1.1408714
Phalempin,PHA,59462,50.5154, 3.0199
Pibrac,PBR,31417,43.621364, 1.289237
Picon Busserine,XPC,13214,43.3309989, 5.3927456
Picquigny,PIQ,80622,49.9461557, 2.1432765
Pierre-Bénite,PRB,69152,45.7066772, 4.8245059
Pierre-Buffière,PIB,87119,45.6995226, 1.3472667
Pierrelatte,PRL,26235,44.374719, 4.703783
Pierrelaye,PRY,95488,49.01955, 2.15371
Pierreville,PVE,54429,48.5488838, 6.1241409
Pignans,PIG,83092,43.298475, 6.2248459
Pihen-lès-Guînes,PHV,62657,50.8727855, 1.7845632
Pins-Justaret,PJT,31421,43.479213, 1.399645
Plaisir - Grignon,PGS,78490,48.8316509, 1.9432973
Plaisir - Les Clayes,PIE,78490,48.8304565, 1.9600537
Plancoët,PLA,22172,48.5216785, -2.2289207
Planès,PNW,66142,42.5009185, 2.1369269
Pléchâtel,PCT,35221,47.8719509, -1.7763615
Plénée-Jugon,PLJ,22185,48.376656, -2.3546108
Plerguer,PGE,35224,48.5314637, -1.8505895
Plestan,PLE,22193,48.4256462, -2.4424607
Pleudihen-sur-Rance,PUH,22197,48.4993822, -1.9617515
Pleyber-Christ,PBC,29163,48.5078255, -3.8825543
Plouaret Trégor,PLT,22207,48.6062816, -3.4668231
Plougonver,PGO,22216,48.4584133, -3.3704584
Plouharnel - Carnac,PLC,56168,47.6042943, -3.1184482
Plouigneau,PGU,29199,48.5647064, -3.7100572
Plounérin,PNR,22227,48.5816298, -3.5682311
Plouvara - Plerneuf,PPF,22234,48.508585, -2.8925136
Podensac,POD,33327,44.6489664, -0.3589057
Pointe de Grave,PDG,33544,45.567067, -1.0658575
Poissy,PSY,78498,48.9329014, 2.0413676
Poitiers,PST,86194,46.582275, 0.333241
Poix-de-Picardie,PDP,80630,49.7778561, 1.9897767
Poix-Terron,PIX,8341,49.6500011, 4.6365346
Poliénas,POS,38310,45.256006, 5.4735849
Poligny,PGN,39434,46.8443393, 5.7001051
Polliat,PLF,1301,46.24464, 5.1238268
Pomas,PMA,11293,43.1123875, 2.2892273
Pompadour,POM,19011,45.3952807, 1.3871677
Pompey,PPE,54430,48.77304, 6.13061
Pons,PNP,17283,45.5780767, -0.5389124
Pont Cardinet,PTC,75117,48.88755, 2.31425
Pont d'Ardres,PRD,62038,50.8920781, 1.9712144
Pont de Bois,PPB,59009,50.62403, 3.13026
Pont de Briques,PRS,62746,50.6828164, 1.6268038
Pont de Dore,PDO,63276,45.8427833, 3.4903254
Pont de l'Alma,PDM,75107,48.8625705, 2.3010287
Pont de la Deûle,PDD,59234,50.39813, 3.08503
Pont de Lignon,PJL,43025,45.2597792, 4.1372431
Pont de Rungis Aéroport d'Orly,PRU,94073,48.748163, 2.372792
Pont de Sallaumines,PSJ,62771,50.4157922, 2.8632044
Pont du Garigliano - Hôpital Européen Georges Pompidou,BVI,75115,48.839464, 2.2712276
Pont Petit,PPT,95572,49.06004, 2.13046
Pont-à-Mousson,PAM,54431,48.90058, 6.050842
Pont-à-Vendin,PAV,62666,50.4713812, 2.8751938
Pont-d'Ain,PDA,1304,46.053961, 5.3343285
Pont-de-Buis,PBU,29302,48.2544024, -4.0861227
Pont-de-l'Arche,PAR,27008,49.3170928, 1.1596559
Pont-de-Veyle,PEL,1134,46.2679114, 4.8930347
Pont-du-Casse,PUC,47209,44.2328145, 0.6758568
Pont-du-Château,PCV,63284,45.7885543, 3.2377829
Pont-l'Évêque,PVQ,14514,49.2870379, 0.1921947
Pont-Melvez,PMZ,22249,48.4702228, -3.3114444
Pont-Remy,PRM,80635,50.0472341, 1.8988404
Pont-Saint-Vincent,PSV,54432,48.6023732, 6.1031502
Pont-Sainte-Maxence,PXE,60509,49.30974, 2.60289
Pont-sur-Yonne,PUY,89309,48.286287, 3.201463
Pontanevaux,PNX,71090,46.2130321, 4.7728891
Pontarlier,PTL,25462,46.900944, 6.353524
Pontchaillou,PCI,35238,48.11918, -1.69107
Pontcharra - Saint-Forgeux,PNF,69157,45.8714911, 4.4927781
Pontcharra sur Bréda,PCA,38314,45.434151, 6.007917
Pontchâteau,PCU,44129,47.435399, -2.088201
Pontgouin,PNN,28302,48.477867, 1.1414359
Ponthierry - Pringy,POP,77407,48.534933, 2.54459
Pontmort,PMT,63068,45.939486, 3.1601248
Pontoise,PSE,95500,49.04709, 2.09545
Pontorson - Mont-Saint-Michel,PON,50410,48.5527286, -1.5049307
Pontrieux,PUX,22250,48.7056437, -3.1574281
Pontrieux Halte,PXH,22250,48.6980361, -3.1644959
Porchefontaine,POA,78646,48.7969381, 2.1540156
Pornic,PNC,44131,47.1145616, -2.0975565
Pornichet,PNI,44132,47.2705354, -2.3445765
Port Boulet,PBT,37074,47.248836, 0.155648
Port-Brillet,PTT,53182,48.1106724, -0.9740682
Port-de-Bouc,PDB,13077,43.4071317, 4.9846006
Port-de-Piles,PPJ,37045,47.0102599, 0.5989179
Port-la-Nouvelle,PLN,11266,43.0199342, 3.0388188
Port-Saint-Père - Saint-Mars,PXS,44133,47.1164915, -1.7393069
Port-Sainte-Marie,PSM,47210,44.2504383, 0.3905059
Port-Vendres,POV,66148,42.5136077, 3.1025762
Porte de Clichy,PCL,75117,48.89399, 2.31462
Porté-Puymorens,PPM,66146,42.539136, 1.8248462
Portet Saint-Simon,PSS,31433,43.527904, 1.389243
Portets,PRV,33334,44.6929765, -0.4253931
Pougny - Chancy,PJY,1308,46.1446674, 5.9613614
Pougues-les-Eaux,PSU,58214,47.0767837, 3.0940304
Pouilly-sur-Loire,PYL,58215,47.2821696, 2.9660634
Pouxeux,PXX,88358,48.1039421, 6.5810266
Pouzauges,PZK,85140,46.7523536, -0.8146784
Prades - Molitg-les-Bains,PDS,66149,42.6170988, 2.4294184
Précy-sur-Oise,PYO,60513,49.2033492, 2.3764638
Preignac,PRG,33337,44.5783064, -0.3022296
Presles Courcelles,PRQ,95504,49.11346, 2.28759
Prin-Deyrançon,PND,79220,46.2190177, -0.6365007
Pringy,PGY,74010,45.9395239, 6.1232736
Prissé-la-Charrière,PIH,79078,46.15277, -0.4936249
Prouvy - Thiant,PRT,59475,50.3167933, 3.4610838
Provenchères-sur-Fave,PVF,88361,48.3046291, 7.0854904
Provins,PRO,77379,48.55577, 3.302822
Prunay,PWH,51449,49.1988, 4.18364
Pruniers-en-Sologne,PUZ,41097,47.313174, 1.6722045
Puget-Ville,PVI,83100,43.283085, 6.1384483
Pulligny - Autrey,PUI,54032,48.5360716, 6.1374765
Puteaux,PTX,92062,48.88351, 2.2335
Puybrun,PBN,46229,44.9216335, 1.7841548
Puyoô,PUO,64461,43.5245425, -0.9108149
Quédillac,QDC,35234,48.2484804, -2.1452204
Quesnoy-sur-Deûle,QUS,59482,50.7081361, 2.9952832
Questembert,QUE,56184,47.6831803, -2.4496002
Quiberon,QBP,56186,47.4852978, -3.1181869
Quillan,QLN,11304,42.8739607, 2.1815581
Quimper,QPR,29232,47.994455, -4.092103
Quimperlé,QPL,29233,47.869375, -3.552693
Quincieux,QUX,69207,45.9068815, 4.7785643
Rabastens - Coufouleux,RAB,81070,43.819751, 1.730567
Raedersheim,RHM,68260,47.8869059, 7.2840467
Raismes,RAS,59491,50.3902495, 3.4788322
Rambouillet,RBT,78517,48.64377, 1.83154
Ranchot,RNH,39451,47.1525633, 5.7246607
Rang-du-Fliers - Verton - Berck,RDF,62688,50.41579, 1.64805
Ranguin,RGN,6085,43.5691636, 6.9693134
Ranspach,RCH,68262,47.88157, 7.01266
Raon-l'Étape,RAO,88372,48.404002, 6.837302
Rassuen,RAU,13047,43.4966716, 4.9731266
Raves - Ban-de-Laveline,RVB,88375,48.265723, 7.0378799
Razac-sur-l'Isle,RZA,24350,45.1659287, 0.5992849
Réaumont - Saint-Cassien,RCS,38331,45.3688217, 5.5346895
Recquignies,RCQ,59495,50.2840466, 4.0445029
Réding,RDG,57566,48.7429595, 7.095885
Redon,RDN,35236,47.652004, -2.08777
Régny,RGY,42181,45.987705, 4.2150753
Reichshoffen,RHV,67388,48.9310582, 7.658132
Reignac-sur-Indre,RGA,37192,47.2178494, 0.9013322
Reignier-Ésery,REI,74220,46.1256159, 6.2675466
Reims,RMS,51454,49.258978, 4.024435
Reims Maison Blanche,RSN,51454,49.2336853, 4.0224927
Rémelfing,RFG,57631,49.091627, 7.0915336
Rémilly,RMI,57572,49.0140249, 6.3950968
Remiremont,RMT,88383,48.016363, 6.598855
Remise à Jorelle,RJL,93010,48.89317, 2.487751
Remy,REY,60531,49.4331452, 2.7059434
Renescure,RSC,59497,50.732006, 2.3713644
Rennes,RES,35238,48.103517, -1.672744
Rethel,RTL,8362,49.504393, 4.369566
Retiers,RTI,35239,47.9132599, -1.3898439
Retournac,RET,43162,45.2013468, 4.0361169
Reuilly,REL,36171,47.0853677, 2.0474783
Revigny-sur-Ornain,REV,55427,48.8240449, 4.9855736
Revin,RVI,8363,49.938756, 4.642536
Rezé Pont Rousseau,RPT,44143,47.1932425, -1.5495445
Ria-Sirach,RAJ,66161,42.6034078, 2.3907488
Ribécourt-Dreslincourt,RIB,60537,49.50633, 2.92714
Riedseltz,RTZ,67400,48.991063, 7.962988
Rieux - Angicourt,RIA,60539,49.29866, 2.5214
Rilly-la-Montagne,RAG,51461,49.1664524, 4.0408608
Riom - Châtel-Guyon,RIO,63300,45.889965, 3.120498
Ris-Orangis,RIS,91521,48.659442, 2.41442
Rivarennes,RVQ,37200,47.2677425, 0.3618999
Rive-de-Gier,RGR,42186,45.524324, 4.606648
Rives,RIV,38337,45.357535, 5.491893
Rivesaltes,RVT,66164,42.7664405, 2.86789
Rixheim,RHE,68278,47.74896, 7.406404
Roanne,ROA,42187,46.039383, 4.063207
Rocamadour - Padirac,RAP,46240,44.8183562, 1.6573487
Roche-lez-Beaupré,RBE,25495,47.2762881, 6.1109651
Rochefort,RCT,17299,45.947189, -0.963556
Rochy-Condé,RCY,60542,49.3986042, 2.1727344
Rodez,RDZ,12202,44.362633, 2.58056
Roeschwoog,RWG,67405,48.8334661, 8.0298738
Rœux,RUX,62718,50.3034404, 2.8950172
Rognac,RGC,13081,43.4866, 5.230666
Roissy-en-Brie,ROB,77390,48.795481, 2.650165
Rolleville,ROL,76534,49.5820461, 0.2157828
Romanèche-Thorins,RHR,71372,46.1763913, 4.7421014
Romans - Bourg-de-Péage,ROM,26281,45.048857, 5.0498
Rombas - Clouange,RBS,57591,49.2560553, 6.0990538
Romilly-la-Puthenaye,RYP,27492,49.0039213, 0.8548621
Romilly-sur-Seine,RMY,10323,48.514433, 3.728887
Romorantin-Lanthenay,RMA,41194,47.3554468, 1.7390137
Ronchamp,RCP,70451,47.6990308, 6.6232791
Ronchin,ROC,59507,50.6045664, 3.0783734
Roppenheim,RHI,67025,48.8510962, 8.0623108
Roquebrune-Cap-Martin,CQR,6104,43.7606178, 7.457343
Roquesérière - Buzet,RQE,31094,43.7512472, 1.6198753
Rosa Parks,ROK,75118,48.89602, 2.37397
Roscoff,RFF,29239,48.7207491, -3.9833434
Rosheim,ROH,67411,48.50525, 7.49093
Rosières-aux-Salines,ROI,54159,48.60563, 6.350457
Rosières-en-Santerre,ROS,80680,49.82253, 2.71141
Rosny Bois Perrier,RBI,93064,48.882568, 2.480987
Rosny-sous-Bois,RSB,93064,48.87099, 2.48559
Rosny-sur-Seine,RSS,78531,48.997287, 1.63009
Rosporden,RSP,29241,47.960273, -3.832763
Rosult,ROT,59511,50.4563667, 3.3490115
Rothau,RTH,67414,48.4590026, 7.2074902
Roubaix,RXB,59512,50.69561, 3.16348
Rouen Rive Droite,RRD,76540,49.448764, 1.094087
Rouessé-Vassé,REE,72255,48.1602933, -0.1995868
Rouffach,RAH,68287,47.9602481, 7.312455
